[{"urban": 1, "direction": 1, "name": "RTE 74/4th SEP N/O", "district": 8, "longitude": -117.218642, "freeway": 215, "station": 819200, "latitude": 33.785651}, {"urban": 1, "direction": 2, "name": "RTE 74/4th SEP N/O", "district": 8, "longitude": -117.218747, "freeway": 215, "station": 819201, "latitude": 33.785554}, {"urban": 1, "direction": 3, "name": "W/O I-15", "district": 11, "longitude": -117.121715, "freeway": 52, "station": 1114114, "latitude": 32.841682}, {"urban": 0, "direction": 1, "name": "RTE 74/4th SEP S/O", "district": 8, "longitude": -117.213169, "freeway": 215, "station": 819203, "latitude": 33.782061}, {"urban": 0, "direction": 1, "name": "VAN BUREN BLVD", "district": 8, "longitude": -117.270822, "freeway": 215, "station": 819204, "latitude": 33.88964}, {"urban": 1, "direction": 4, "name": "W. of Gilardi Rd.", "district": 3, "longitude": -121.146352, "freeway": 80, "station": 316758, "latitude": 38.852429}, {"urban": 0, "direction": 1, "name": "VAN BUREN BLVD N/O", "district": 8, "longitude": -117.27479, "freeway": 215, "station": 819206, "latitude": 33.897686}, {"urban": 1, "direction": 4, "name": ".61 M E/O REGENTS RD", "district": 11, "longitude": -117.209753, "freeway": 52, "station": 1114119, "latitude": 32.845641}, {"urban": 1, "direction": 2, "name": "HANDY 2", "district": 12, "longitude": -117.758692, "freeway": 261, "station": 1212424, "latitude": 33.769824}, {"urban": 0, "direction": 1, "name": "OLEANDER AVE N/O", "district": 8, "longitude": -117.264715, "freeway": 215, "station": 819209, "latitude": 33.874539}, {"urban": 0, "direction": 2, "name": "VAN BUREN AVE S/O", "district": 8, "longitude": -117.269369, "freeway": 215, "station": 819210, "latitude": 33.885447}, {"urban": 1, "direction": 1, "name": "4TH STREET", "district": 8, "longitude": -117.302357, "freeway": 215, "station": 819212, "latitude": 34.10712}, {"urban": 0, "direction": 1, "name": "S/O Jct Rte EB 205", "district": 10, "longitude": -121.331393, "freeway": 5, "station": 1015810, "latitude": 37.767234}, {"urban": 1, "direction": 4, "name": "E/O I-15", "district": 11, "longitude": -117.121717, "freeway": 52, "station": 1114126, "latitude": 32.841932}, {"urban": 0, "direction": 1, "name": "HANDY 3", "district": 12, "longitude": -117.757935, "freeway": 261, "station": 1212431, "latitude": 33.77449}, {"urban": 0, "direction": 2, "name": "HANDY 3", "district": 12, "longitude": -117.758346, "freeway": 261, "station": 1212432, "latitude": 33.7747}, {"urban": 1, "direction": 2, "name": "27th STREET", "district": 8, "longitude": -117.314778, "freeway": 215, "station": 819217, "latitude": 34.13743}, {"urban": 1, "direction": 1, "name": "27th STREET", "district": 8, "longitude": -117.314595, "freeway": 215, "station": 819218, "latitude": 34.137523}, {"urban": 0, "direction": 3, "name": "E/O SANTO RD", "district": 11, "longitude": -117.076315, "freeway": 52, "station": 1114131, "latitude": 32.84783}, {"urban": 1, "direction": 2, "name": "2nd STREET", "district": 8, "longitude": -117.301924, "freeway": 215, "station": 819220, "latitude": 34.099932}, {"urban": 1, "direction": 2, "name": "4th STREET", "district": 8, "longitude": -117.302176, "freeway": 215, "station": 819221, "latitude": 34.104262}, {"urban": 1, "direction": 1, "name": "INLAND CENTER DR", "district": 8, "longitude": -117.30109, "freeway": 215, "station": 819222, "latitude": 34.085481}, {"urban": 1, "direction": 2, "name": "INLAND CENTER DR", "district": 8, "longitude": -117.30127, "freeway": 215, "station": 819223, "latitude": 34.085432}, {"urban": 1, "direction": 3, "name": ".3 M E/O I-5", "district": 11, "longitude": -117.234743, "freeway": 52, "station": 1114136, "latitude": 32.837447}, {"urban": 0, "direction": 1, "name": "CHAPMAN", "district": 12, "longitude": -117.75497, "freeway": 261, "station": 1212441, "latitude": 33.779145}, {"urban": 0, "direction": 1, "name": "CHAPMAN", "district": 12, "longitude": -117.75497, "freeway": 261, "station": 1212442, "latitude": 33.779145, "type": "FR"}, {"urban": 0, "direction": 2, "name": "CHAPMAN", "district": 12, "longitude": -117.75529, "freeway": 261, "station": 1212443, "latitude": 33.779357}, {"urban": 0, "direction": 2, "name": "CHAPMAN", "district": 12, "longitude": -117.75529, "freeway": 261, "station": 1212444, "latitude": 33.779357, "type": "OR"}, {"urban": 1, "direction": 3, "name": ".53 M W/O I-805", "district": 11, "longitude": -117.18848, "freeway": 52, "station": 1114141, "latitude": 32.846153}, {"urban": 0, "direction": 2, "name": "VAN BUREN BLVD", "district": 8, "longitude": -117.271069, "freeway": 215, "station": 819205, "latitude": 33.889543}, {"urban": 0, "direction": 1, "name": "N/O Jct EB Rte 120", "district": 10, "longitude": -121.305278, "freeway": 5, "station": 1048610, "latitude": 37.78576}, {"urban": 0, "direction": 3, "name": "E/O I-805", "district": 11, "longitude": -117.164749, "freeway": 52, "station": 1114147, "latitude": 32.841823}, {"urban": 1, "direction": 2, "name": "ORCHID", "district": 12, "longitude": -117.871215, "freeway": 73, "station": 1212454, "latitude": 33.659515}, {"urban": 1, "direction": 1, "name": "ORCHID", "district": 12, "longitude": -117.870921, "freeway": 73, "station": 1212455, "latitude": 33.659803}, {"urban": 0, "direction": 3, "name": ".37 M W/O SR-163", "district": 11, "longitude": -117.139742, "freeway": 52, "station": 1114153, "latitude": 32.840091}, {"urban": 1, "direction": 1, "name": "HANDY 2", "district": 12, "longitude": -117.75831, "freeway": 261, "station": 1212423, "latitude": 33.769642}, {"urban": 1, "direction": 2, "name": "51SB -> 50WB", "district": 3, "longitude": -121.472952, "freeway": 51, "station": 316429, "latitude": 38.56023, "type": "FF"}, {"urban": 0, "direction": 4, "name": "E/O SANTO RD", "district": 11, "longitude": -117.076351, "freeway": 52, "station": 1114157, "latitude": 32.848226}, {"urban": 1, "direction": 1, "name": "CAMPUS", "district": 12, "longitude": -117.87634, "freeway": 73, "station": 1212463, "latitude": 33.663519}, {"urban": 1, "direction": 2, "name": "CAMPUS", "district": 12, "longitude": -117.876633, "freeway": 73, "station": 1212464, "latitude": 33.66324}, {"urban": 0, "direction": 2, "name": "OLEANDER N/O", "district": 8, "longitude": -117.264978, "freeway": 215, "station": 819208, "latitude": 33.874442}, {"urban": 1, "direction": 4, "name": ".3 M E/O I-5", "district": 11, "longitude": -117.234406, "freeway": 52, "station": 1114162, "latitude": 32.838563}, {"urban": 1, "direction": 1, "name": "M 1Mi N/O SOQUEL CYN", "district": 8, "longitude": -117.702281, "freeway": 71, "station": 819252, "latitude": 33.978621, "type": "HV"}, {"urban": 1, "direction": 1, "name": "M 1Mi N/O SOQUEL CYN", "district": 8, "longitude": -117.702281, "freeway": 71, "station": 819253, "latitude": 33.978621}, {"urban": 1, "direction": 4, "name": ".53 M W/O I-805", "district": 11, "longitude": -117.188474, "freeway": 52, "station": 1114166, "latitude": 32.846481}, {"urban": 1, "direction": 1, "name": "120TH STREET", "district": 7, "longitude": -118.281293, "freeway": 110, "station": 774704, "latitude": 33.922709}, {"urban": 1, "direction": 2, "name": "S OF 55", "district": 12, "longitude": -117.88342, "freeway": 73, "station": 1212472, "latitude": 33.669908}, {"urban": 1, "direction": 1, "name": "S OF 55", "district": 12, "longitude": -117.883175, "freeway": 73, "station": 1212473, "latitude": 33.67012}, {"urban": 0, "direction": 4, "name": "E/O I-805", "district": 11, "longitude": -117.164745, "freeway": 52, "station": 1114171, "latitude": 32.842099}, {"urban": 1, "direction": 2, "name": "M 1 M N/O SOQUEL CYN", "district": 8, "longitude": -117.701553, "freeway": 71, "station": 819261, "latitude": 33.977984}, {"urban": 1, "direction": 2, "name": "M 1 M N/O SOQUEL CYN", "district": 8, "longitude": -117.701553, "freeway": 71, "station": 819262, "latitude": 33.977984, "type": "HV"}, {"urban": 1, "direction": 1, "name": "N OF 55", "district": 12, "longitude": -117.887299, "freeway": 73, "station": 1212479, "latitude": 33.674893}, {"urban": 1, "direction": 2, "name": "N OF 55", "district": 12, "longitude": -117.887584, "freeway": 73, "station": 1212480, "latitude": 33.67464}, {"urban": 0, "direction": 4, "name": ".37 M W/O SR-163", "district": 11, "longitude": -117.139785, "freeway": 52, "station": 1114177, "latitude": 32.840333}, {"urban": 0, "direction": 1, "name": "4A5334 loc 53", "district": 4, "longitude": -122.598465, "freeway": 101, "station": 402629, "latitude": 38.199533}, {"urban": 1, "direction": 3, "name": "CALIFORNIA", "district": 7, "longitude": -117.995852, "freeway": 210, "station": 773170, "latitude": 34.135301, "type": "HV"}, {"urban": 1, "direction": 2, "name": "BEAR 1", "district": 12, "longitude": -117.892743, "freeway": 73, "station": 1212484, "latitude": 33.68058}, {"urban": 0, "direction": 2, "name": "M .8 N/O SR-91", "district": 8, "longitude": -117.646878, "freeway": 71, "station": 819269, "latitude": 33.892691}, {"urban": 1, "direction": 1, "name": ".09 M N/O CORONADO", "district": 11, "longitude": -117.08351, "freeway": 5, "station": 1114183, "latitude": 32.577722}, {"urban": 1, "direction": 1, "name": "BEAR 2", "district": 12, "longitude": -117.894515, "freeway": 73, "station": 1212489, "latitude": 33.683052}, {"urban": 1, "direction": 1, "name": "M.46 N/O CHINO HILLS", "district": 8, "longitude": -117.714111, "freeway": 71, "station": 819276, "latitude": 33.988125}, {"urban": 1, "direction": 1, "name": "M.46 N/O CHINO HILLS", "district": 8, "longitude": -117.714111, "freeway": 71, "station": 819277, "latitude": 33.988125, "type": "HV"}, {"urban": 1, "direction": 1, "name": ".73 M S/O CIVIC CTR", "district": 11, "longitude": -117.107386, "freeway": 5, "station": 1114190, "latitude": 32.658963}, {"urban": 1, "direction": 2, "name": "FAIRVIEW", "district": 12, "longitude": -117.898045, "freeway": 73, "station": 1212495, "latitude": 33.686456}, {"urban": 1, "direction": 1, "name": "FAIRVIEW", "district": 12, "longitude": -117.897754, "freeway": 73, "station": 1212496, "latitude": 33.686594}, {"urban": 1, "direction": 2, "name": "M.46 N/O CHINO HILLS", "district": 8, "longitude": -117.713447, "freeway": 71, "station": 819284, "latitude": 33.98713}, {"urban": 1, "direction": 1, "name": ".18 M N/O CIVIC CTR", "district": 11, "longitude": -117.110666, "freeway": 5, "station": 1114197, "latitude": 32.672389}, {"urban": 1, "direction": 1, "name": "Saratoga Ave on loop", "district": 4, "longitude": -121.975157, "freeway": 17, "station": 402843, "latitude": 37.226342, "type": "OR"}, {"urban": 1, "direction": 2, "name": "ORCHID", "district": 12, "longitude": -117.871215, "freeway": 73, "station": 1212504, "latitude": 33.659515, "type": "FR"}, {"urban": 1, "direction": 1, "name": "FAIRVIEW", "district": 12, "longitude": -117.909664, "freeway": 405, "station": 1201508, "latitude": 33.688017, "type": "HV"}, {"urban": 1, "direction": 2, "name": "CAMPUS", "district": 12, "longitude": -117.876633, "freeway": 73, "station": 1212506, "latitude": 33.66324, "type": "FR"}, {"urban": 1, "direction": 1, "name": "MUSCUPIABE DR N/O", "district": 8, "longitude": -117.309271, "freeway": 215, "station": 819215, "latitude": 34.133858}, {"urban": 1, "direction": 1, "name": ".27 M N/O DIVISION", "district": 11, "longitude": -117.11275, "freeway": 5, "station": 1114205, "latitude": 32.686187}, {"urban": 1, "direction": 1, "name": "M .92 S/O SOQUEL CYN", "district": 8, "longitude": -117.680929, "freeway": 71, "station": 819294, "latitude": 33.957095}, {"urban": 1, "direction": 3, "name": "E. of Pole Line Rd.", "district": 3, "longitude": -121.71973, "freeway": 80, "station": 316773, "latitude": 38.547128}, {"urban": 1, "direction": 1, "name": "M .92 S/O SOQUEL CYN", "district": 8, "longitude": -117.680929, "freeway": 71, "station": 819296, "latitude": 33.957095, "type": "HV"}, {"urban": 1, "direction": 2, "name": "MUSCUPIABE DR N/O", "district": 8, "longitude": -117.309549, "freeway": 215, "station": 819216, "latitude": 34.133608}, {"urban": 1, "direction": 1, "name": "CAMPUS", "district": 12, "longitude": -117.87634, "freeway": 73, "station": 1212514, "latitude": 33.663519, "type": "OR"}, {"urban": 1, "direction": 1, "name": ".26 M N/O SR-15", "district": 11, "longitude": -117.124759, "freeway": 5, "station": 1114211, "latitude": 32.694337}, {"urban": 1, "direction": 4, "name": "La Cadena Dr", "district": 8, "longitude": -117.326735, "freeway": 10, "station": 824678, "latitude": 34.066279, "type": "OR"}, {"urban": 1, "direction": 2, "name": "55NB TO 73SB", "district": 12, "longitude": -117.88342, "freeway": 73, "station": 1212518, "latitude": 33.669908, "type": "FF"}, {"urban": 1, "direction": 2, "name": "55SB TO 73SB", "district": 12, "longitude": -117.88342, "freeway": 73, "station": 1212519, "latitude": 33.669908, "type": "FF"}, {"urban": 1, "direction": 1, "name": "M .84 S/O POMONA FWY", "district": 8, "longitude": -117.73989, "freeway": 71, "station": 819305, "latitude": 34.016066, "type": "HV"}, {"urban": 1, "direction": 1, "name": ".23 M N/O 28TH ST", "district": 11, "longitude": -117.134988, "freeway": 5, "station": 1114219, "latitude": 32.695918}, {"urban": 1, "direction": 2, "name": "BEAR 1", "district": 12, "longitude": -117.892743, "freeway": 73, "station": 1212525, "latitude": 33.68058, "type": "OR"}, {"urban": 1, "direction": 1, "name": "BEAR 1", "district": 12, "longitude": -117.892318, "freeway": 73, "station": 1212526, "latitude": 33.680652, "type": "FR"}, {"urban": 1, "direction": 2, "name": "M .84 S/O POMONA FWY", "district": 8, "longitude": -117.738611, "freeway": 71, "station": 819311, "latitude": 34.014855}, {"urban": 1, "direction": 2, "name": "M .84 S/O POMONA FWY", "district": 8, "longitude": -117.738611, "freeway": 71, "station": 819314, "latitude": 34.014855, "type": "HV"}, {"urban": 1, "direction": 1, "name": "2nd STREET", "district": 8, "longitude": -117.301771, "freeway": 215, "station": 819219, "latitude": 34.099922}, {"urban": 1, "direction": 2, "name": "N/O CMNO DE LA PLAZA", "district": 11, "longitude": -117.030501, "freeway": 5, "station": 1114228, "latitude": 32.542731}, {"urban": 1, "direction": 2, "name": "BEAR 2", "district": 12, "longitude": -117.894753, "freeway": 73, "station": 1212533, "latitude": 33.682854, "type": "FR"}, {"urban": 1, "direction": 2, "name": "FAIRVIEW", "district": 12, "longitude": -117.898045, "freeway": 73, "station": 1212537, "latitude": 33.686456, "type": "OR"}, {"urban": 1, "direction": 2, "name": ".09 M N/O CORONADO", "district": 11, "longitude": -117.083765, "freeway": 5, "station": 1114234, "latitude": 32.577622}, {"urban": 0, "direction": 1, "name": "M 1 Mi. N/O SR-83", "district": 8, "longitude": -117.670721, "freeway": 71, "station": 819324, "latitude": 33.943234}, {"urban": 0, "direction": 1, "name": "TwelveBridge", "district": 3, "longitude": -121.299571, "freeway": 65, "station": 317081, "latitude": 38.85269}, {"urban": 0, "direction": 1, "name": "N/O PRADO DAM RD", "district": 8, "longitude": -117.646503, "freeway": 71, "station": 821625, "latitude": 33.897654}, {"urban": 1, "direction": 2, "name": ".73 M S/O CIVIC CTR", "district": 11, "longitude": -117.10767, "freeway": 5, "station": 1114240, "latitude": 32.65888}, {"urban": 1, "direction": 2, "name": "S73 TO S55", "district": 12, "longitude": -117.887796, "freeway": 73, "station": 1212545, "latitude": 33.674875, "type": "FF"}, {"urban": 1, "direction": 2, "name": "M 1 Mi N/O SR-83", "district": 8, "longitude": -117.670797, "freeway": 71, "station": 819330, "latitude": 33.942881}, {"urban": 1, "direction": 2, "name": "M 1 Mi N/O SR-83", "district": 8, "longitude": -117.670797, "freeway": 71, "station": 819333, "latitude": 33.942881, "type": "HV"}, {"urban": 0, "direction": 3, "name": "Jct Rte I-5", "district": 10, "longitude": -121.30654, "freeway": 120, "station": 1048710, "latitude": 37.78495}, {"urban": 1, "direction": 2, "name": ".18 M N/O CIVIC CTR", "district": 11, "longitude": -117.110958, "freeway": 5, "station": 1114247, "latitude": 32.672443}, {"urban": 1, "direction": 2, "name": "M .92 S/O SOQUELCYN", "district": 8, "longitude": -117.680867, "freeway": 71, "station": 819337, "latitude": 33.95652}, {"urban": 1, "direction": 2, "name": "M .92 S/O SOQUEL CYN", "district": 8, "longitude": -117.680867, "freeway": 71, "station": 819340, "latitude": 33.95652, "type": "HV"}, {"urban": 1, "direction": 3, "name": "M .5 E/O DEL ROSA AV", "district": 8, "longitude": -117.244064, "freeway": 210, "station": 819341, "latitude": 34.139015}, {"urban": 1, "direction": 2, "name": ".27 M N/O DIVISION", "district": 11, "longitude": -117.113063, "freeway": 5, "station": 1114254, "latitude": 32.685989}, {"urban": 1, "direction": 2, "name": "PINE AVE NB ON", "district": 8, "longitude": -117.676236, "freeway": 71, "station": 825108, "latitude": 33.950128, "type": "HV"}, {"urban": 1, "direction": 2, "name": ".26 M N/O SR-15", "district": 11, "longitude": -117.124841, "freeway": 5, "station": 1114261, "latitude": 32.694108}, {"urban": 1, "direction": 1, "name": "BROOKHURST 2", "district": 12, "longitude": -117.958388, "freeway": 5, "station": 1212566, "latitude": 33.845442, "type": "FR"}, {"urban": 0, "direction": 3, "name": "W/O Paradise Cut Bridge", "district": 10, "longitude": -121.333012, "freeway": 205, "station": 1057310, "latitude": 37.766904}, {"urban": 1, "direction": 2, "name": ".23 M N/O 28TH ST", "district": 11, "longitude": -117.135196, "freeway": 5, "station": 1114268, "latitude": 32.69574}, {"urban": 1, "direction": 1, "name": "4TH ST NB ONR", "district": 8, "longitude": -117.544634, "freeway": 15, "station": 819226, "latitude": 34.079216}, {"urban": 1, "direction": 1, "name": "CRESCENT", "district": 12, "longitude": -117.949259, "freeway": 5, "station": 1212578, "latitude": 33.840124, "type": "HV"}, {"urban": 1, "direction": 2, "name": "CRESCENT", "district": 12, "longitude": -117.949454, "freeway": 5, "station": 1212579, "latitude": 33.839851, "type": "HV"}, {"urban": 1, "direction": 1, "name": "5N S/O Park Blvd", "district": 11, "longitude": -117.149612, "freeway": 5, "station": 1114276, "latitude": 32.723004}, {"urban": 0, "direction": 1, "name": "N/O Westside Blvd", "district": 10, "longitude": -120.653783, "freeway": 99, "station": 1075910, "latitude": 37.362242}, {"urban": 2, "direction": 3, "name": "W/O Via Este Rd", "district": 10, "longitude": -120.296799, "freeway": 108, "station": 1081510, "latitude": 37.982179}, {"urban": 1, "direction": 4, "name": "M .7 E/O BASELINE RD", "district": 8, "longitude": -117.198948, "freeway": 210, "station": 819368, "latitude": 34.10997}, {"urban": 0, "direction": 2, "name": "125 SB @ EAST H ST", "district": 11, "longitude": -116.991224, "freeway": 125, "station": 1119143, "latitude": 32.682081}, {"urban": 1, "direction": 2, "name": "1.48 M S/O SR-52", "district": 11, "longitude": -117.217482, "freeway": 5, "station": 1114283, "latitude": 32.80859}, {"urban": 1, "direction": 1, "name": "BROOKHURST 1", "district": 12, "longitude": -117.955716, "freeway": 5, "station": 1212588, "latitude": 33.843721}, {"urban": 1, "direction": 1, "name": "2.06 M N/O BALBOA", "district": 11, "longitude": -117.232968, "freeway": 5, "station": 1114290, "latitude": 32.834149}, {"urban": 1, "direction": 1, "name": "BROOKHURST 1", "district": 12, "longitude": -117.955716, "freeway": 5, "station": 1212595, "latitude": 33.843721, "type": "HV"}, {"urban": 1, "direction": 2, "name": "BROOKHURST 1", "district": 12, "longitude": -117.955942, "freeway": 5, "station": 1212596, "latitude": 33.843443, "type": "FR"}, {"urban": 1, "direction": 1, "name": "1.2 M N/O SR-52", "district": 11, "longitude": -117.231251, "freeway": 5, "station": 1114296, "latitude": 32.855148}, {"urban": 1, "direction": 2, "name": "Auto Park Way/9th Av", "district": 11, "longitude": -117.093924, "freeway": 15, "station": 1122779, "latitude": 33.106484}, {"urban": 1, "direction": 1, "name": "1.17 M N/O TAMARACK", "district": 11, "longitude": -117.34438, "freeway": 5, "station": 1114303, "latitude": 33.167728}, {"urban": 1, "direction": 1, "name": "LA PALMA", "district": 12, "longitude": -117.962444, "freeway": 5, "station": 1212609, "latitude": 33.847549, "type": "HV"}, {"urban": 1, "direction": 2, "name": "LA PALMA", "district": 12, "longitude": -117.96276, "freeway": 5, "station": 1212610, "latitude": 33.847169, "type": "HV"}, {"urban": 1, "direction": 2, "name": "LA PALMA", "district": 12, "longitude": -117.96276, "freeway": 5, "station": 1212611, "latitude": 33.847169}, {"urban": 1, "direction": 4, "name": "El Portal Dr on", "district": 4, "longitude": -122.328958, "freeway": 80, "station": 408202, "latitude": 37.962454, "type": "OR"}, {"urban": 1, "direction": 2, "name": ".32 M N/O COMMERCIAL", "district": 11, "longitude": -117.14776, "freeway": 5, "station": 1114310, "latitude": 32.709966}, {"urban": 1, "direction": 1, "name": "HOV DISNEY WAY OFF", "district": 12, "longitude": -117.893833, "freeway": 5, "station": 1212252, "latitude": 33.795663, "type": "FR"}, {"urban": 0, "direction": 1, "name": "S/O Jct Rte EB 205", "district": 10, "longitude": -121.324925, "freeway": 5, "station": 1016010, "latitude": 37.77193}, {"urban": 1, "direction": 4, "name": "Mt. Vernon Ave", "district": 8, "longitude": -117.315591, "freeway": 10, "station": 824695, "latitude": 34.065101}, {"urban": 1, "direction": 2, "name": "SB 5 S/O  PARK BLVD", "district": 11, "longitude": -117.149778, "freeway": 5, "station": 1114318, "latitude": 32.722887}, {"urban": 1, "direction": 4, "name": "Mt. Vernon Ave", "district": 8, "longitude": -117.315591, "freeway": 10, "station": 824696, "latitude": 34.065101, "type": "OR"}, {"urban": 1, "direction": 1, "name": "LINCOLN", "district": 12, "longitude": -117.931513, "freeway": 5, "station": 1212627, "latitude": 33.832016, "type": "HV"}, {"urban": 1, "direction": 3, "name": "W/O SEVERIN DR", "district": 11, "longitude": -116.990294, "freeway": 8, "station": 1114326, "latitude": 32.778947}, {"urban": 1, "direction": 3, "name": "Mt. Vernon Ave", "district": 8, "longitude": -117.315601, "freeway": 10, "station": 824697, "latitude": 34.064898}, {"urban": 1, "direction": 1, "name": "N/O SAN YSIDRO BLVD", "district": 11, "longitude": -117.042036, "freeway": 805, "station": 1114333, "latitude": 32.560986}, {"urban": 1, "direction": 2, "name": "EUCLID 1", "district": 12, "longitude": -117.938264, "freeway": 5, "station": 1212644, "latitude": 33.834594, "type": "HV"}, {"urban": 1, "direction": 1, "name": "N/O BONITA RD", "district": 11, "longitude": -117.067889, "freeway": 805, "station": 1114341, "latitude": 32.651582}, {"urban": 1, "direction": 2, "name": "EUCLID 1", "district": 12, "longitude": -117.938264, "freeway": 5, "station": 1212646, "latitude": 33.834594, "type": "OR"}, {"urban": 1, "direction": 2, "name": "EUCLID 1", "district": 12, "longitude": -117.938264, "freeway": 5, "station": 1212647, "latitude": 33.834594, "type": "FR"}, {"urban": 1, "direction": 1, "name": "EUCLID 1", "district": 12, "longitude": -117.938078, "freeway": 5, "station": 1212648, "latitude": 33.834815, "type": "HV"}, {"urban": 1, "direction": 1, "name": "EUCLID 1", "district": 12, "longitude": -117.938078, "freeway": 5, "station": 1212649, "latitude": 33.834815}, {"urban": 1, "direction": 4, "name": "AYALA WB/ON @ 210", "district": 8, "longitude": -117.391591, "freeway": 210, "station": 819436, "latitude": 34.135993, "type": "FR"}, {"urban": 1, "direction": 1, "name": "N/O SR-54", "district": 11, "longitude": -117.079657, "freeway": 805, "station": 1114350, "latitude": 32.665689}, {"urban": 1, "direction": 1, "name": "LA PAZ  1", "district": 12, "longitude": -117.705711, "freeway": 73, "station": 1217917, "latitude": 33.573435, "type": "FR"}, {"urban": 1, "direction": 4, "name": "RIVERSIDE WB/ON@210", "district": 8, "longitude": -117.369189, "freeway": 210, "station": 819440, "latitude": 34.136073, "type": "FR"}, {"urban": 1, "direction": 2, "name": "N/O SAN YSIDRO BLVD", "district": 11, "longitude": -117.042316, "freeway": 805, "station": 1114356, "latitude": 32.561025}, {"urban": 1, "direction": 2, "name": "LINCOLN", "district": 12, "longitude": -117.933068, "freeway": 5, "station": 1212661, "latitude": 33.832791, "type": "HV"}, {"urban": 1, "direction": 2, "name": "LINCOLN", "district": 12, "longitude": -117.933068, "freeway": 5, "station": 1212662, "latitude": 33.832791}, {"urban": 1, "direction": 2, "name": "LINCOLN", "district": 12, "longitude": -117.933068, "freeway": 5, "station": 1212663, "latitude": 33.832791, "type": "OR"}, {"urban": 1, "direction": 1, "name": "HOV DISNEY WAY OFF", "district": 12, "longitude": -117.903831, "freeway": 5, "station": 1212664, "latitude": 33.805087, "type": "FR"}, {"urban": 1, "direction": 1, "name": "HOV GENE AUTRY ON 2", "district": 12, "longitude": -117.903831, "freeway": 5, "station": 1212665, "latitude": 33.805087, "type": "OR"}, {"urban": 0, "direction": 4, "name": "JEO Dry CreekRd", "district": 3, "longitude": -121.029847, "freeway": 80, "station": 317527, "latitude": 38.959607}, {"urban": 1, "direction": 2, "name": "N/O BONITA RD", "district": 11, "longitude": -117.068162, "freeway": 805, "station": 1114363, "latitude": 32.651396}, {"urban": 1, "direction": 4, "name": "ALDER EB/ON @ 210", "district": 8, "longitude": -117.408476, "freeway": 210, "station": 819454, "latitude": 34.136423}, {"urban": 1, "direction": 4, "name": "ALDER EB/ON @ 210", "district": 8, "longitude": -117.408476, "freeway": 210, "station": 819455, "latitude": 34.136423, "type": "HV"}, {"urban": 1, "direction": 1, "name": "GILBERT", "district": 12, "longitude": -117.968011, "freeway": 5, "station": 1212672, "latitude": 33.850294, "type": "HV"}, {"urban": 1, "direction": 2, "name": "GILBERT", "district": 12, "longitude": -117.968231, "freeway": 5, "station": 1212673, "latitude": 33.85001, "type": "HV"}, {"urban": 1, "direction": 2, "name": "N/O SR-54", "district": 11, "longitude": -117.079915, "freeway": 805, "station": 1114370, "latitude": 32.665603}, {"urban": 1, "direction": 4, "name": "CHERRY AVE", "district": 8, "longitude": -117.492893, "freeway": 210, "station": 819460, "latitude": 34.136471}, {"urban": 1, "direction": 2, "name": "CHAPMAN 1", "district": 12, "longitude": -117.880197, "freeway": 57, "station": 1212677, "latitude": 33.783256, "type": "FR"}, {"urban": 1, "direction": 2, "name": "SB 805 S/O PALM AVE", "district": 11, "longitude": -117.038478, "freeway": 805, "station": 1114376, "latitude": 32.578095}, {"direction": 4, "name": "SIERRA EB ON", "district": 8, "freeway": 210, "station": 819466}, {"direction": 4, "name": "SIERRA EB ON", "district": 8, "freeway": 210, "station": 819467, "type": "HV"}, {"urban": 1, "direction": 1, "name": "S/O TELEGRAPH CANYON", "district": 11, "longitude": -117.040497, "freeway": 805, "station": 1114382, "latitude": 32.621727}, {"urban": 1, "direction": 4, "name": "CITRUS EB ON", "district": 8, "longitude": -117.449474, "freeway": 210, "station": 819472, "latitude": 34.136512}, {"urban": 1, "direction": 1, "name": "EUCLID 2", "district": 12, "longitude": -117.943038, "freeway": 5, "station": 1212689, "latitude": 33.836731, "type": "HV"}, {"urban": 1, "direction": 2, "name": "EUCLID 2", "district": 12, "longitude": -117.943178, "freeway": 5, "station": 1212690, "latitude": 33.8365, "type": "HV"}, {"urban": 1, "direction": 1, "name": "EUCLID 2", "district": 12, "longitude": -117.943038, "freeway": 5, "station": 1212691, "latitude": 33.836731, "type": "FR"}, {"urban": 1, "direction": 2, "name": "EUCLID 2", "district": 12, "longitude": -117.943178, "freeway": 5, "station": 1212692, "latitude": 33.8365, "type": "FR"}, {"urban": 1, "direction": 1, "name": "S/O EAST H ST", "district": 11, "longitude": -117.049574, "freeway": 805, "station": 1114389, "latitude": 32.636861}, {"urban": 1, "direction": 3, "name": "CITRUS WB ON", "district": 8, "longitude": -117.458134, "freeway": 210, "station": 819478, "latitude": 34.136227}, {"urban": 1, "direction": 3, "name": "CITRUS WB ON", "district": 8, "longitude": -117.458134, "freeway": 210, "station": 819479, "latitude": 34.136227, "type": "HV"}, {"urban": 1, "direction": 2, "name": "N/O HERNDON AVE SB", "district": 6, "longitude": -119.92535, "freeway": 99, "station": 602313, "latitude": 36.838204}, {"urban": 1, "direction": 2, "name": "S/O EAST H ST", "district": 11, "longitude": -117.049889, "freeway": 805, "station": 1114396, "latitude": 32.636725}, {"urban": 1, "direction": 3, "name": "SIERRA WB ON", "district": 8, "longitude": -117.438641, "freeway": 210, "station": 819485, "latitude": 34.136017, "type": "HV"}, {"urban": 1, "direction": 1, "name": "HARBOR 1", "district": 12, "longitude": -117.918196, "freeway": 405, "station": 1201541, "latitude": 33.688872}, {"urban": 1, "direction": 2, "name": "S/O TELEGRAPH CANYON", "district": 11, "longitude": -117.040804, "freeway": 805, "station": 1114402, "latitude": 32.621641}, {"direction": 4, "name": "SIERRA EB LOOP", "district": 8, "freeway": 210, "station": 819491}, {"direction": 4, "name": "SIERRA EB LOOP", "district": 8, "freeway": 210, "station": 819492, "type": "HV"}, {"urban": 1, "direction": 1, "name": "Cottage Ave OC", "district": 10, "longitude": -121.198157, "freeway": 99, "station": 1098010, "latitude": 37.806862}, {"urban": 1, "direction": 1, "name": "NB805 S/O PALM AVE", "district": 11, "longitude": -117.038153, "freeway": 805, "station": 1114409, "latitude": 32.578083}, {"urban": 1, "direction": 3, "name": "STATE WB/ON @ 210", "district": 8, "longitude": -117.354995, "freeway": 210, "station": 819498, "latitude": 34.134534}, {"urban": 1, "direction": 2, "name": "133S TO 5S", "district": 12, "longitude": -117.749253, "freeway": 5, "station": 1212715, "latitude": 33.662021, "type": "FF"}, {"urban": 0, "direction": 1, "name": "Jct Rte EB 205", "district": 10, "longitude": -121.322227, "freeway": 5, "station": 1016110, "latitude": 37.773929}, {"urban": 1, "direction": 4, "name": "STATE EB/ON @ 210", "district": 8, "longitude": -117.335409, "freeway": 210, "station": 819504, "latitude": 34.134674}, {"urban": 1, "direction": 4, "name": "STATE EB/ON @ 210", "district": 8, "longitude": -117.335409, "freeway": 210, "station": 819505, "latitude": 34.134674, "type": "HV"}, {"urban": 0, "direction": 1, "name": "N/O SR-163 MERGE", "district": 11, "longitude": -117.110317, "freeway": 15, "station": 1114419, "latitude": 32.862886}, {"urban": 1, "direction": 4, "name": "LEMON", "district": 12, "longitude": -117.912686, "freeway": 91, "station": 1212724, "latitude": 33.853895, "type": "HV"}, {"urban": 1, "direction": 4, "name": "LEMON", "district": 12, "longitude": -117.912686, "freeway": 91, "station": 1212725, "latitude": 33.853895}, {"urban": 1, "direction": 4, "name": "ACACIA", "district": 12, "longitude": -117.897207, "freeway": 91, "station": 1212726, "latitude": 33.854044, "type": "HV"}, {"urban": 1, "direction": 3, "name": "ACACIA", "district": 12, "longitude": -117.897217, "freeway": 91, "station": 1212727, "latitude": 33.85388, "type": "HV"}, {"urban": 1, "direction": 2, "name": "SHAW AVE 99 NB", "district": 6, "longitude": -119.885619, "freeway": 99, "station": 602314, "latitude": 36.807026}, {"urban": 1, "direction": 1, "name": "S OF 133", "district": 12, "longitude": -117.751722, "freeway": 5, "station": 1212730, "latitude": 33.66578, "type": "FF"}, {"urban": 1, "direction": 3, "name": "MILLIKEN WB ON", "district": 8, "longitude": -117.561652, "freeway": 210, "station": 819515, "latitude": 34.136453}, {"urban": 0, "direction": 2, "name": "S/O MIRAMAR WAY", "district": 11, "longitude": -117.108234, "freeway": 15, "station": 1114428, "latitude": 32.878639}, {"urban": 1, "direction": 4, "name": "MILLIKEN EB ON", "district": 8, "longitude": -117.556943, "freeway": 210, "station": 819520, "latitude": 34.136763}, {"urban": 1, "direction": 2, "name": "ORANGE AVE", "district": 6, "longitude": -119.762829, "freeway": 99, "station": 649952, "latitude": 36.695505, "type": "FR"}, {"urban": 1, "direction": 4, "name": "CAMPUS AVE .5 M W/O", "district": 8, "longitude": -117.647603, "freeway": 210, "station": 825893, "latitude": 34.135024}, {"urban": 1, "direction": 1, "name": "S/O CITRACADO PKWY", "district": 11, "longitude": -117.073255, "freeway": 15, "station": 1114435, "latitude": 33.082961}, {"urban": 1, "direction": 1, "name": "55N HOV TO 5N HOV", "district": 12, "longitude": -117.844061, "freeway": 5, "station": 1212741, "latitude": 33.750124, "type": "FF"}, {"urban": 1, "direction": 2, "name": "5S HOV TO 55S HOV", "district": 12, "longitude": -117.844652, "freeway": 5, "station": 1212742, "latitude": 33.749928, "type": "FF"}, {"urban": 1, "direction": 1, "name": "JENSEN AVE", "district": 6, "longitude": -119.77104, "freeway": 99, "station": 649953, "latitude": 36.704, "type": "FR"}, {"urban": 1, "direction": 3, "name": "W/O COLLEGE AVE", "district": 11, "longitude": -117.054391, "freeway": 94, "station": 1114441, "latitude": 32.738356}, {"urban": 1, "direction": 4, "name": "HAVEN EB ON", "district": 8, "longitude": -117.574366, "freeway": 210, "station": 819532, "latitude": 34.136311}, {"urban": 1, "direction": 3, "name": "NORDAHL RD", "district": 11, "longitude": -117.119739, "freeway": 78, "station": 1108706, "latitude": 33.131243}, {"urban": 1, "direction": 4, "name": "Citrus Ave", "district": 8, "longitude": -117.450791, "freeway": 10, "station": 824717, "latitude": 34.06697}, {"urban": 1, "direction": 1, "name": "S/O FRIARS RD", "district": 11, "longitude": -117.16213, "freeway": 163, "station": 1114450, "latitude": 32.767979}, {"urban": 1, "direction": 3, "name": "NORDAHL RD", "district": 11, "longitude": -117.119739, "freeway": 78, "station": 1108707, "latitude": 33.131243, "type": "OR"}, {"urban": 0, "direction": 2, "name": "7TH STANDARD RD 5 SB", "district": 6, "longitude": -119.456339, "freeway": 5, "station": 602315, "latitude": 35.441675}, {"urban": 1, "direction": 3, "name": "BEACH 1", "district": 12, "longitude": -117.998577, "freeway": 91, "station": 1212760, "latitude": 33.855997, "type": "HV"}, {"urban": 1, "direction": 1, "name": "S/O GENESEE AVE", "district": 11, "longitude": -117.161692, "freeway": 163, "station": 1114457, "latitude": 32.783982}, {"urban": 1, "direction": 4, "name": "E/B ARCHIBALD ONR", "district": 8, "longitude": -117.591764, "freeway": 210, "station": 819546, "latitude": 34.13531, "type": "HV"}, {"urban": 1, "direction": 2, "name": "S/O GENESEE AVE", "district": 11, "longitude": -117.16195, "freeway": 163, "station": 1114463, "latitude": 32.784015}, {"urban": 1, "direction": 3, "name": "CARNELIAN WB ON", "district": 8, "longitude": -117.617924, "freeway": 210, "station": 819552, "latitude": 34.13486}, {"urban": 1, "direction": 3, "name": "CARNELIAN WB ON", "district": 8, "longitude": -117.617924, "freeway": 210, "station": 819553, "latitude": 34.13486, "type": "HV"}, {"urban": 1, "direction": 3, "name": "BROOKHURST", "district": 12, "longitude": -117.95679, "freeway": 91, "station": 1212770, "latitude": 33.853902, "type": "HV"}, {"urban": 1, "direction": 2, "name": "AT LAKE FOREST", "district": 12, "longitude": -117.782238, "freeway": 133, "station": 1219081, "latitude": 33.546453}, {"urban": 1, "direction": 3, "name": "EUCLID", "district": 12, "longitude": -117.938876, "freeway": 91, "station": 1212773, "latitude": 33.854029, "type": "HV"}, {"urban": 1, "direction": 1, "name": "S/O I-805", "district": 11, "longitude": -117.154108, "freeway": 163, "station": 1114471, "latitude": 32.804762}, {"urban": 1, "direction": 2, "name": "NATIONAL", "district": 7, "longitude": -118.430023, "freeway": 405, "station": 772532, "latitude": 34.026631, "type": "HV"}, {"urban": 1, "direction": 2, "name": "GRAND 1 HOV ON", "district": 12, "longitude": -117.849326, "freeway": 5, "station": 1212780, "latitude": 33.753388, "type": "OR"}, {"urban": 1, "direction": 1, "name": "GRAND 1 HOV OFF", "district": 12, "longitude": -117.848819, "freeway": 5, "station": 1212781, "latitude": 33.753768, "type": "FR"}, {"urban": 1, "direction": 2, "name": "S/O I-805", "district": 11, "longitude": -117.154415, "freeway": 163, "station": 1114478, "latitude": 32.80484}, {"urban": 1, "direction": 2, "name": "MAIN HOV OFF", "district": 12, "longitude": -117.869238, "freeway": 5, "station": 1212784, "latitude": 33.770032, "type": "FR"}, {"urban": 1, "direction": 1, "name": "MAIN HOV ON", "district": 12, "longitude": -117.868723, "freeway": 5, "station": 1212785, "latitude": 33.770299, "type": "OR"}, {"urban": 1, "direction": 1, "name": "Larkspur ave on-n-diag", "district": 4, "longitude": -122.420006, "freeway": 280, "station": 403323, "latitude": 37.596885}, {"urban": 0, "direction": 1, "name": "N/O SR-52", "district": 11, "longitude": -117.131418, "freeway": 163, "station": 1114484, "latitude": 32.843194}, {"urban": 1, "direction": 3, "name": "EAST", "district": 12, "longitude": -117.905042, "freeway": 91, "station": 1212789, "latitude": 33.853767, "type": "HV"}, {"urban": 1, "direction": 2, "name": "N OF BELMONT AVE", "district": 6, "longitude": -119.825739, "freeway": 99, "station": 649961, "latitude": 36.751026, "type": "FR"}, {"urban": 1, "direction": 3, "name": "STATE COLLEGE", "district": 12, "longitude": -117.887676, "freeway": 91, "station": 1212792, "latitude": 33.853992, "type": "HV"}, {"urban": 0, "direction": 2, "name": "N/O SR-52", "district": 11, "longitude": -117.131635, "freeway": 163, "station": 1114491, "latitude": 32.843356}, {"urban": 0, "direction": 3, "name": "Obyrnes Ferry Rd", "district": 10, "longitude": -120.494444, "freeway": 120, "station": 1010410, "latitude": 37.888618}, {"urban": 0, "direction": 1, "name": "N/O SR-52", "district": 11, "longitude": -117.118354, "freeway": 15, "station": 1114499, "latitude": 32.845255}, {"urban": 1, "direction": 4, "name": "W. of Reed Ave.", "district": 3, "longitude": -121.558624, "freeway": 80, "station": 316822, "latitude": 38.582602}, {"urban": 0, "direction": 1, "name": "M .8 N/O SR-91", "district": 8, "longitude": -117.646757, "freeway": 71, "station": 819265, "latitude": 33.893728}, {"urban": 1, "direction": 2, "name": "MURPHY CANYON RD", "district": 11, "longitude": -117.112825, "freeway": 15, "station": 1108716, "latitude": 32.800345, "type": "OR"}, {"urban": 1, "direction": 2, "name": "N/O SR-52", "district": 11, "longitude": -117.118997, "freeway": 15, "station": 1114507, "latitude": 32.845287}, {"urban": 1, "direction": 3, "name": "GLASSELL2", "district": 12, "longitude": -117.85323, "freeway": 91, "station": 1212813, "latitude": 33.848381, "type": "HV"}, {"urban": 1, "direction": 1, "name": "MERCY RD", "district": 11, "longitude": -117.111337, "freeway": 15, "station": 1108717, "latitude": 32.93588}, {"urban": 1, "direction": 3, "name": "CAMPUS STREET", "district": 8, "longitude": -117.638861, "freeway": 210, "station": 819600, "latitude": 34.134887, "type": "HV"}, {"urban": 1, "direction": 2, "name": "15S HOV NO Via Pkwy", "district": 11, "longitude": -117.070363, "freeway": 15, "station": 1121151, "latitude": 33.074003}, {"urban": 1, "direction": 3, "name": "GLASSELL2", "district": 12, "longitude": -117.85323, "freeway": 91, "station": 1212818, "latitude": 33.848381, "type": "FR"}, {"urban": 0, "direction": 4, "name": "E/O MAST BLVD", "district": 11, "longitude": -117.037926, "freeway": 52, "station": 1114515, "latitude": 32.851402}, {"urban": 1, "direction": 4, "name": "MOUNTAIN AVE EB ON", "district": 8, "longitude": -117.668512, "freeway": 210, "station": 819605, "latitude": 34.134533}, {"urban": 1, "direction": 4, "name": "MOUNTAIN AVE EB ON", "district": 8, "longitude": -117.668512, "freeway": 210, "station": 819606, "latitude": 34.134533, "type": "HV"}, {"urban": 0, "direction": 3, "name": "2.0 M W/O MAST BLVD", "district": 11, "longitude": -117.053258, "freeway": 52, "station": 1114520, "latitude": 32.853427}, {"urban": 1, "direction": 2, "name": "SHAW AVE", "district": 6, "longitude": -119.885633, "freeway": 99, "station": 649967, "latitude": 36.807035, "type": "FR"}, {"urban": 0, "direction": 4, "name": "2.0 M W/O MAST BLVD", "district": 11, "longitude": -117.053193, "freeway": 52, "station": 1114525, "latitude": 32.853727}, {"urban": 1, "direction": 3, "name": "MOUNTAIN AVE WB ON", "district": 8, "longitude": -117.671953, "freeway": 210, "station": 819614, "latitude": 34.134333, "type": "HV"}, {"urban": 0, "direction": 3, "name": "1.0 M W/O MAST BLVD", "district": 11, "longitude": -117.037986, "freeway": 52, "station": 1114529, "latitude": 32.851092}, {"urban": 1, "direction": 2, "name": "MAGNOLIA AVE", "district": 8, "longitude": -117.540736, "freeway": 15, "station": 819621, "latitude": 33.864052}, {"urban": 0, "direction": 4, "name": "1.0 M W/O MAST BLVD", "district": 11, "longitude": -117.037908, "freeway": 52, "station": 1114534, "latitude": 32.851399}, {"urban": 1, "direction": 2, "name": "Walnut", "district": 12, "longitude": -117.831223, "freeway": 55, "station": 1212839, "latitude": 33.797729, "type": "HV"}, {"urban": 1, "direction": 2, "name": "Walnut", "district": 12, "longitude": -117.831223, "freeway": 55, "station": 1212840, "latitude": 33.797729}, {"urban": 1, "direction": 1, "name": "Walnut", "district": 12, "longitude": -117.831045, "freeway": 55, "station": 1212841, "latitude": 33.797732, "type": "HV"}, {"urban": 1, "direction": 1, "name": "Walnut", "district": 12, "longitude": -117.831045, "freeway": 55, "station": 1212842, "latitude": 33.797732}, {"urban": 1, "direction": 3, "name": "W/O I-5", "district": 11, "longitude": -117.169513, "freeway": 8, "station": 1114540, "latitude": 32.760498}, {"urban": 1, "direction": 1, "name": "5 N S/O MANCHESTER", "district": 11, "longitude": -117.25907, "freeway": 5, "station": 1119645, "latitude": 33.00551}, {"urban": 1, "direction": 4, "name": "W/O I-5", "district": 11, "longitude": -117.206475, "freeway": 8, "station": 1114546, "latitude": 32.759539}, {"urban": 1, "direction": 1, "name": "EL CERRITO RD", "district": 8, "longitude": -117.525218, "freeway": 15, "station": 819635, "latitude": 33.826912, "type": "OR"}, {"urban": 1, "direction": 4, "name": "Citrus Ave", "district": 8, "longitude": -117.45337, "freeway": 10, "station": 824734, "latitude": 34.067023}, {"urban": 1, "direction": 3, "name": "E/O HOTEL CIRCLE O/C", "district": 11, "longitude": -117.186508, "freeway": 8, "station": 1114552, "latitude": 32.75949}, {"urban": 1, "direction": 4, "name": "E/O HOTEL CIRCLE O/C", "district": 11, "longitude": -117.165326, "freeway": 8, "station": 1114558, "latitude": 32.761823}, {"urban": 1, "direction": 2, "name": "COLLINS", "district": 12, "longitude": -117.831527, "freeway": 55, "station": 1212863, "latitude": 33.800649}, {"urban": 1, "direction": 1, "name": "COLLINS", "district": 12, "longitude": -117.831355, "freeway": 55, "station": 1212864, "latitude": 33.800652, "type": "HV"}, {"urban": 1, "direction": 1, "name": "COLLINS", "district": 12, "longitude": -117.831355, "freeway": 55, "station": 1212865, "latitude": 33.800652}, {"urban": 1, "direction": 4, "name": "W/O MISSION GORGE RD", "district": 11, "longitude": -117.101856, "freeway": 8, "station": 1114566, "latitude": 32.779156}, {"urban": 1, "direction": 3, "name": "CAMPUS EB ON", "district": 8, "longitude": -117.632056, "freeway": 210, "station": 819659, "latitude": 34.134861, "type": "HV"}, {"urban": 1, "direction": 3, "name": "E/O WARING RD", "district": 11, "longitude": -117.080031, "freeway": 8, "station": 1114573, "latitude": 32.779857}, {"urban": 1, "direction": 2, "name": "LA VETA", "district": 12, "longitude": -117.831163, "freeway": 55, "station": 1212881, "latitude": 33.780312, "type": "HV"}, {"urban": 1, "direction": 2, "name": "LA VETA", "district": 12, "longitude": -117.831163, "freeway": 55, "station": 1212882, "latitude": 33.780312}, {"urban": 1, "direction": 2, "name": "55SB TO 22WB", "district": 12, "longitude": -117.831163, "freeway": 55, "station": 1212883, "latitude": 33.780312, "type": "FF"}, {"urban": 1, "direction": 3, "name": "W/O 70TH/LAKE MURRAY", "district": 11, "longitude": -117.054473, "freeway": 8, "station": 1114580, "latitude": 32.777152}, {"urban": 1, "direction": 1, "name": "LA VETA", "district": 12, "longitude": -117.830987, "freeway": 55, "station": 1212885, "latitude": 33.78031}, {"urban": 1, "direction": 1, "name": "22EB TO 55NB", "district": 12, "longitude": -117.830987, "freeway": 55, "station": 1212886, "latitude": 33.78031, "type": "FF"}, {"urban": 1, "direction": 1, "name": "CHAPMAN OFF S/O 22", "district": 12, "longitude": -117.830987, "freeway": 55, "station": 1212887, "latitude": 33.78031, "type": "FR"}, {"urban": 1, "direction": 1, "name": "TAFT", "district": 12, "longitude": -117.831919, "freeway": 55, "station": 1212900, "latitude": 33.817981, "type": "HV"}, {"urban": 1, "direction": 1, "name": "TAFT", "district": 12, "longitude": -117.831919, "freeway": 55, "station": 1212901, "latitude": 33.817981}, {"urban": 1, "direction": 2, "name": "TAFT", "district": 12, "longitude": -117.832098, "freeway": 55, "station": 1212902, "latitude": 33.817979, "type": "HV"}, {"urban": 1, "direction": 2, "name": "TAFT", "district": 12, "longitude": -117.832098, "freeway": 55, "station": 1212903, "latitude": 33.817979}, {"urban": 1, "direction": 1, "name": "IMJIN PARKWAY HWY 1 NB VDS MLNB", "district": 5, "longitude": -121.814631, "freeway": 1, "station": 5000011042, "latitude": 36.666333}, {"urban": 0, "direction": 2, "name": "Elverta Rd.", "district": 3, "longitude": -121.540579, "freeway": 99, "station": 316839, "latitude": 38.716243}, {"urban": 1, "direction": 2, "name": "Off to Yosemite Ave", "district": 10, "longitude": -121.191735, "freeway": 99, "station": 1097810, "latitude": 37.798978, "type": "FR"}, {"urban": 1, "direction": 2, "name": "N/O MADERA AVE 99 SB", "district": 6, "longitude": -120.060376, "freeway": 99, "station": 602303, "latitude": 36.957129}, {"urban": 1, "direction": 4, "name": "VALENCIA AVE", "district": 8, "longitude": -117.268368, "freeway": 210, "station": 819695, "latitude": 34.144783}, {"urban": 1, "direction": 3, "name": "VALENCIA AVE", "district": 8, "longitude": -117.268275, "freeway": 210, "station": 819696, "latitude": 34.144545}, {"urban": 1, "direction": 2, "name": "Bayshore Blvd on", "district": 4, "longitude": -122.397266, "freeway": 101, "station": 408099, "latitude": 37.665252, "type": "OR"}, {"urban": 1, "direction": 2, "name": "IMPERIAL 1", "district": 7, "longitude": -118.178962, "freeway": 710, "station": 717980, "latitude": 33.92992}, {"urban": 1, "direction": 1, "name": "KATELLA  2", "district": 12, "longitude": -117.831905, "freeway": 55, "station": 1212915, "latitude": 33.812203, "type": "HV"}, {"urban": 1, "direction": 1, "name": "KATELLA  2", "district": 12, "longitude": -117.831905, "freeway": 55, "station": 1212916, "latitude": 33.812203}, {"urban": 1, "direction": 1, "name": "KATELLA  2", "district": 12, "longitude": -117.831905, "freeway": 55, "station": 1212917, "latitude": 33.812203, "type": "OR"}, {"urban": 1, "direction": 2, "name": "S/O Gerard Ave", "district": 10, "longitude": -120.444621, "freeway": 99, "station": 1016310, "latitude": 37.277804}, {"urban": 1, "direction": 4, "name": "CENTRAL AVE", "district": 8, "longitude": -117.21899, "freeway": 210, "station": 819703, "latitude": 34.132057}, {"urban": 1, "direction": 4, "name": "330 JCT", "district": 8, "longitude": -117.20408, "freeway": 210, "station": 819709, "latitude": 34.129428}, {"urban": 1, "direction": 3, "name": "330 JCT", "district": 8, "longitude": -117.20407, "freeway": 210, "station": 819710, "latitude": 34.129029}, {"urban": 1, "direction": 2, "name": "M.46 N/O CHINO HILLS", "district": 8, "longitude": -117.713447, "freeway": 71, "station": 819285, "latitude": 33.98713, "type": "HV"}, {"urban": 1, "direction": 3, "name": "SANTA ANA RIVER", "district": 8, "longitude": -117.200754, "freeway": 210, "station": 819716, "latitude": 34.090795}, {"urban": 1, "direction": 4, "name": "SANTA ANA RIVER", "district": 8, "longitude": -117.200455, "freeway": 210, "station": 819717, "latitude": 34.091299}, {"urban": 1, "direction": 2, "name": "FAIRHAVEN", "district": 12, "longitude": -117.831088, "freeway": 55, "station": 1212934, "latitude": 33.773138, "type": "HV"}, {"urban": 1, "direction": 2, "name": "FAIRHAVEN", "district": 12, "longitude": -117.831088, "freeway": 55, "station": 1212935, "latitude": 33.773138}, {"urban": 1, "direction": 2, "name": "22E TO 55S", "district": 12, "longitude": -117.831088, "freeway": 55, "station": 1212936, "latitude": 33.773138, "type": "FF"}, {"urban": 1, "direction": 1, "name": "FAIRHAVEN", "district": 12, "longitude": -117.830912, "freeway": 55, "station": 1212937, "latitude": 33.773139, "type": "HV"}, {"urban": 1, "direction": 1, "name": "FAIRHAVEN", "district": 12, "longitude": -117.830912, "freeway": 55, "station": 1212938, "latitude": 33.773139}, {"urban": 1, "direction": 1, "name": "55N TO 22W", "district": 12, "longitude": -117.830912, "freeway": 55, "station": 1212939, "latitude": 33.773139, "type": "FF"}, {"urban": 1, "direction": 4, "name": "SAN BERNARDINO AVE", "district": 8, "longitude": -117.200539, "freeway": 210, "station": 819728, "latitude": 34.073916}, {"urban": 0, "direction": 1, "name": "S/O Oakdale Rd", "district": 10, "longitude": -120.51001, "freeway": 59, "station": 1049110, "latitude": 37.414041, "type": "CH"}, {"urban": 1, "direction": 1, "name": "ORCHID", "district": 12, "longitude": -117.870921, "freeway": 73, "station": 1212505, "latitude": 33.659803, "type": "FR"}, {"urban": 1, "direction": 1, "name": "N/B AT JCT I-5", "district": 11, "longitude": -117.226773, "freeway": 805, "station": 1114648, "latitude": 32.909198}, {"direction": 2, "name": "S/B AT JCT I-5", "district": 11, "freeway": 805, "station": 1114649}, {"urban": 1, "direction": 1, "name": "MEATS", "district": 12, "longitude": -117.83192, "freeway": 55, "station": 1212955, "latitude": 33.823807}, {"urban": 1, "direction": 2, "name": "MEATS", "district": 12, "longitude": -117.832097, "freeway": 55, "station": 1212957, "latitude": 33.823807}, {"urban": 1, "direction": 2, "name": "ORANGE SHOW SB T ON", "district": 8, "longitude": -117.295753, "freeway": 215, "station": 819744, "latitude": 34.07566, "type": "FR"}, {"urban": 1, "direction": 1, "name": "N/B AT JCT I-805", "district": 11, "longitude": -117.225274, "freeway": 5, "station": 1114659, "latitude": 32.907593}, {"urban": 1, "direction": 2, "name": "S/B AT JCT I-805", "district": 11, "longitude": -117.226265, "freeway": 5, "station": 1114660, "latitude": 32.907588}, {"urban": 1, "direction": 1, "name": "INLAND CENTER NB ON", "district": 8, "longitude": -117.30056, "freeway": 215, "station": 819751, "latitude": 34.084626, "type": "HV"}, {"urban": 1, "direction": 1, "name": "ORANGE SHOW NB ON", "district": 8, "longitude": -117.297146, "freeway": 215, "station": 819756, "latitude": 34.079417, "type": "HV"}, {"urban": 1, "direction": 1, "name": "S/O IMPERIAL AVE", "district": 11, "longitude": -117.120394, "freeway": 15, "station": 1114669, "latitude": 32.706137}, {"urban": 1, "direction": 2, "name": "S/O IMPERIAL AVE", "district": 11, "longitude": -117.120565, "freeway": 15, "station": 1114670, "latitude": 32.706184}, {"urban": 0, "direction": 1, "name": "N. of Reigo Rd.", "district": 3, "longitude": -121.541603, "freeway": 99, "station": 316851, "latitude": 38.753759}, {"urban": 1, "direction": 1, "name": "MILL ST NB ON", "district": 8, "longitude": -117.30177, "freeway": 215, "station": 819765, "latitude": 34.094196, "type": "HV"}, {"urban": 2, "direction": 3, "name": "Off Ramp to Peaceful Oak Rd", "district": 10, "longitude": -120.322992, "freeway": 108, "station": 1081910, "latitude": 37.977255, "type": "FR"}, {"urban": 1, "direction": 2, "name": "MILL ST NB ON", "district": 8, "longitude": -117.301941, "freeway": 215, "station": 819767, "latitude": 34.094197, "type": "HV"}, {"urban": 1, "direction": 2, "name": "INLAND CENTER NB ON", "district": 8, "longitude": -117.300742, "freeway": 215, "station": 819769, "latitude": 34.084569, "type": "HV"}, {"urban": 1, "direction": 1, "name": "S/O UNIVERSITY AVE", "district": 11, "longitude": -117.110577, "freeway": 15, "station": 1114683, "latitude": 32.743423}, {"urban": 1, "direction": 2, "name": "SB 15 S/O UNIVERSITY", "district": 11, "longitude": -117.110995, "freeway": 15, "station": 1114684, "latitude": 32.743514}, {"urban": 1, "direction": 1, "name": " Off Ramp to Hammatt Ave", "district": 10, "longitude": -120.710004, "freeway": 99, "station": 1043210, "latitude": 37.383458, "type": "FR"}, {"urban": 1, "direction": 1, "name": "N/O Lathrop Rd OC", "district": 10, "longitude": -121.217215, "freeway": 99, "station": 10100610, "latitude": 37.827591}, {"urban": 0, "direction": 2, "name": "S/O SUMMIT", "district": 8, "longitude": -117.481222, "freeway": 15, "station": 808373, "latitude": 34.148779}, {"urban": 1, "direction": 2, "name": "4A5334 loc 62", "district": 4, "longitude": -122.662002, "freeway": 101, "station": 402646, "latitude": 38.265391}, {"urban": 1, "direction": 2, "name": "MARTIN LUTHER KING", "district": 8, "longitude": -117.32916, "freeway": 215, "station": 819779, "latitude": 33.969353, "type": "HV"}, {"urban": 1, "direction": 2, "name": "MARTIN LUTHER KING", "district": 8, "longitude": -117.32916, "freeway": 215, "station": 819780, "latitude": 33.969353}, {"urban": 0, "direction": 1, "name": "N/O N CENTRE CITY PK", "district": 11, "longitude": -117.10773, "freeway": 15, "station": 1114695, "latitude": 33.166377}, {"urban": 0, "direction": 2, "name": "N/O N CENTRE CITY PK", "district": 11, "longitude": -117.10807, "freeway": 15, "station": 1114696, "latitude": 33.166231}, {"urban": 1, "direction": 2, "name": "N/O VIA DE SAN YSIDR", "district": 11, "longitude": -117.04812, "freeway": 5, "station": 1114708, "latitude": 32.552409}, {"urban": 1, "direction": 1, "name": "N/O VIA DE SAN YSIDR", "district": 11, "longitude": -117.049868, "freeway": 5, "station": 1114709, "latitude": 32.553384}, {"urban": 1, "direction": 2, "name": "UTAH ST / ALAMEDA ST", "district": 4, "longitude": -122.405214, "freeway": 101, "station": 407434, "latitude": 37.765986}, {"urban": 1, "direction": 2, "name": "N/O Mission Ave", "district": 10, "longitude": -120.441506, "freeway": 99, "station": 1016410, "latitude": 37.27527}, {"urban": 1, "direction": 1, "name": "CHAPMAN 3", "district": 12, "longitude": -117.880263, "freeway": 57, "station": 1213022, "latitude": 33.872345, "type": "HV"}, {"urban": 1, "direction": 1, "name": "CHAPMAN 3", "district": 12, "longitude": -117.880263, "freeway": 57, "station": 1213023, "latitude": 33.872345}, {"urban": 1, "direction": 1, "name": "N/O DAIRY MART RD", "district": 11, "longitude": -117.067081, "freeway": 5, "station": 1114720, "latitude": 32.561334}, {"urban": 1, "direction": 2, "name": "N/O DAIRY MART RD", "district": 11, "longitude": -117.067228, "freeway": 5, "station": 1114721, "latitude": 32.561106}, {"urban": 0, "direction": 1, "name": "S/O Jct Rte EB 205", "district": 10, "longitude": -121.328985, "freeway": 5, "station": 1015910, "latitude": 37.768979}, {"urban": 1, "direction": 1, "name": "M .84 S/O POMONA FWY", "district": 8, "longitude": -117.73989, "freeway": 71, "station": 819303, "latitude": 34.016066}, {"urban": 1, "direction": 1, "name": "UNDERHILL", "district": 12, "longitude": -117.875902, "freeway": 57, "station": 1213036, "latitude": 33.842505}, {"urban": 1, "direction": 1, "name": "S/O MAIN ST", "district": 11, "longitude": -117.088439, "freeway": 5, "station": 1114734, "latitude": 32.593827}, {"urban": 1, "direction": 2, "name": "S/O MAIN ST", "district": 11, "longitude": -117.088714, "freeway": 5, "station": 1114735, "latitude": 32.593819}, {"urban": 1, "direction": 1, "name": "LA PALMA", "district": 12, "longitude": -117.875931, "freeway": 57, "station": 1213041, "latitude": 33.846873}, {"urban": 1, "direction": 1, "name": "5 N  N/O DELMAR HGHT", "district": 11, "longitude": -117.246309, "freeway": 5, "station": 1119678, "latitude": 32.962322, "type": "HV"}, {"urban": 1, "direction": 1, "name": "EL CERRITO RD", "district": 8, "longitude": -117.525218, "freeway": 15, "station": 819834, "latitude": 33.826912, "type": "FR"}, {"urban": 1, "direction": 4, "name": "STATE COLLEGE", "district": 12, "longitude": -117.891303, "freeway": 91, "station": 1213051, "latitude": 33.854309, "type": "HV"}, {"urban": 1, "direction": 1, "name": "N/O PALOMAR ST", "district": 11, "longitude": -117.090176, "freeway": 5, "station": 1114748, "latitude": 32.607626}, {"urban": 1, "direction": 2, "name": "N/O PALOMAR ST", "district": 11, "longitude": -117.090435, "freeway": 5, "station": 1114749, "latitude": 32.607611}, {"urban": 1, "direction": 4, "name": "EAST", "district": 12, "longitude": -117.907991, "freeway": 91, "station": 1213054, "latitude": 33.853925, "type": "HV"}, {"urban": 1, "direction": 3, "name": "EAST", "district": 12, "longitude": -117.907999, "freeway": 91, "station": 1213060, "latitude": 33.853755}, {"urban": 1, "direction": 3, "name": "EAST", "district": 12, "longitude": -117.907999, "freeway": 91, "station": 1213061, "latitude": 33.853755, "type": "HV"}, {"urban": 1, "direction": 1, "name": "N/O J ST", "district": 11, "longitude": -117.093979, "freeway": 5, "station": 1114762, "latitude": 32.624802}, {"urban": 1, "direction": 2, "name": "N/O J ST", "district": 11, "longitude": -117.094228, "freeway": 5, "station": 1114763, "latitude": 32.624708}, {"urban": 1, "direction": 2, "name": "HIDDEN VALLEY", "district": 8, "longitude": -117.560375, "freeway": 15, "station": 819852, "latitude": 33.900653}, {"urban": 0, "direction": 1, "name": "N. of Gladding Ave", "district": 3, "longitude": -121.310365, "freeway": 65, "station": 316866, "latitude": 38.907891}, {"urban": 1, "direction": 1, "name": "HIDDEN VALLEY", "district": 8, "longitude": -117.558896, "freeway": 15, "station": 819857, "latitude": 33.896716}, {"urban": 1, "direction": 1, "name": "N/O E ST", "district": 11, "longitude": -117.101245, "freeway": 5, "station": 1114776, "latitude": 32.64352}, {"urban": 1, "direction": 2, "name": "N/O E ST", "district": 11, "longitude": -117.101507, "freeway": 5, "station": 1114777, "latitude": 32.643457}, {"urban": 2, "direction": 4, "name": "W/O Peaceful Oak Rd", "district": 10, "longitude": -120.322993, "freeway": 108, "station": 1082010, "latitude": 37.977248}, {"urban": 1, "direction": 1, "name": " N/O Off Ramp to Milgeo Ave", "district": 10, "longitude": -121.129793, "freeway": 99, "station": 1059610, "latitude": 37.744663}, {"urban": 1, "direction": 1, "name": "Bastanchury", "district": 12, "longitude": -117.880822, "freeway": 57, "station": 1213087, "latitude": 33.896472}, {"urban": 1, "direction": 2, "name": "Bastanchury", "district": 12, "longitude": -117.881094, "freeway": 57, "station": 1213088, "latitude": 33.896472}, {"urban": 1, "direction": 1, "name": "Bastanchury", "district": 12, "longitude": -117.880822, "freeway": 57, "station": 1213089, "latitude": 33.896472, "type": "HV"}, {"urban": 1, "direction": 2, "name": "Bastanchury", "district": 12, "longitude": -117.881094, "freeway": 57, "station": 1213090, "latitude": 33.896472, "type": "HV"}, {"urban": 1, "direction": 4, "name": "CHERRY EB ON (OS)", "district": 8, "longitude": -117.492893, "freeway": 210, "station": 819461, "latitude": 34.136471, "type": "HV"}, {"urban": 0, "direction": 2, "name": "N. of Gladding Rd", "district": 3, "longitude": -121.310364, "freeway": 65, "station": 316870, "latitude": 38.90789}, {"urban": 1, "direction": 1, "name": "SIXTH ST SB", "district": 8, "longitude": -117.555693, "freeway": 15, "station": 819878, "latitude": 33.938958}, {"urban": 1, "direction": 1, "name": "S/O SEA WORLD DR", "district": 11, "longitude": -117.205217, "freeway": 5, "station": 1114791, "latitude": 32.765083}, {"urban": 1, "direction": 2, "name": "S/O SEA WORLD DR", "district": 11, "longitude": -117.205506, "freeway": 5, "station": 1114792, "latitude": 32.765048}, {"urban": 1, "direction": 1, "name": "0.153 mi S of Washington St", "district": 4, "longitude": -122.471234, "freeway": 280, "station": 404252, "latitude": 37.685793}, {"urban": 0, "direction": 2, "name": "S/O Oakdale Rd", "district": 10, "longitude": -120.51001, "freeway": 59, "station": 1049010, "latitude": 37.414041, "type": "CH"}, {"urban": 1, "direction": 4, "name": "Yucaipa Blvd", "district": 8, "longitude": -117.120359, "freeway": 10, "station": 824917, "latitude": 34.027214}, {"urban": 1, "direction": 1, "name": "Wagner", "district": 12, "longitude": -117.875981, "freeway": 57, "station": 1213103, "latitude": 33.825188, "type": "HV"}, {"urban": 1, "direction": 2, "name": "Wagner", "district": 12, "longitude": -117.876256, "freeway": 57, "station": 1213104, "latitude": 33.825192, "type": "HV"}, {"urban": 1, "direction": 1, "name": "Wagner", "district": 12, "longitude": -117.875981, "freeway": 57, "station": 1213105, "latitude": 33.825188}, {"urban": 1, "direction": 2, "name": "Wagner", "district": 12, "longitude": -117.876256, "freeway": 57, "station": 1213106, "latitude": 33.825192}, {"urban": 1, "direction": 1, "name": "N/O SEA WORLD DR", "district": 11, "longitude": -117.208332, "freeway": 5, "station": 1114805, "latitude": 32.779349}, {"urban": 1, "direction": 2, "name": "S/O CLAIRMONT DR", "district": 11, "longitude": -117.2086, "freeway": 5, "station": 1114806, "latitude": 32.779286}, {"urban": 1, "direction": 1, "name": "BEAR 2", "district": 12, "longitude": -117.894515, "freeway": 73, "station": 1212532, "latitude": 33.683052, "type": "OR"}, {"urban": 1, "direction": 4, "name": "BONNIE COVE", "district": 7, "longitude": -117.856255, "freeway": 210, "station": 772956, "latitude": 34.117587, "type": "HV"}, {"urban": 0, "direction": 2, "name": "S/O Mission Ave", "district": 10, "longitude": -120.438358, "freeway": 99, "station": 1016510, "latitude": 37.27271}, {"urban": 1, "direction": 2, "name": "South", "district": 12, "longitude": -117.876232, "freeway": 57, "station": 1213119, "latitude": 33.832386, "type": "HV"}, {"urban": 1, "direction": 1, "name": "South", "district": 12, "longitude": -117.875965, "freeway": 57, "station": 1213120, "latitude": 33.83238, "type": "HV"}, {"urban": 1, "direction": 1, "name": "S/O BALBOA AVE", "district": 11, "longitude": -117.208297, "freeway": 5, "station": 1114817, "latitude": 32.779667}, {"urban": 1, "direction": 2, "name": "S/O BALBOA AVE", "district": 11, "longitude": -117.216007, "freeway": 5, "station": 1114818, "latitude": 32.806773}, {"urban": 0, "direction": 1, "name": "NB 15 @ MIRAMAR RD", "district": 11, "longitude": -117.114823, "freeway": 15, "station": 1120614, "latitude": 32.893038, "type": "FR"}, {"urban": 1, "direction": 3, "name": "GOLF CENTER DR", "district": 8, "longitude": -116.200107, "freeway": 10, "station": 819910, "latitude": 33.724433}, {"urban": 1, "direction": 2, "name": "MONTEREY ST 101 NB VDS MLSB SB", "district": 5, "longitude": -120.648894, "freeway": 101, "station": 501017052, "latitude": 35.291923}, {"urban": 1, "direction": 1, "name": "UNDERHILL", "district": 12, "longitude": -117.875902, "freeway": 57, "station": 1213131, "latitude": 33.842505, "type": "HV"}, {"urban": 1, "direction": 2, "name": "UNDERHILL", "district": 12, "longitude": -117.876207, "freeway": 57, "station": 1213132, "latitude": 33.842489, "type": "HV"}, {"urban": 1, "direction": 2, "name": "UNDERHILL", "district": 12, "longitude": -117.876207, "freeway": 57, "station": 1213133, "latitude": 33.842489}, {"urban": 1, "direction": 1, "name": "N/O GENESEE AVE", "district": 11, "longitude": -117.227395, "freeway": 5, "station": 1114831, "latitude": 32.88935}, {"urban": 1, "direction": 2, "name": "N/O GENESEE AVE", "district": 11, "longitude": -117.227633, "freeway": 5, "station": 1114832, "latitude": 32.889351}, {"urban": 1, "direction": 3, "name": "PERRIS WB ON", "district": 8, "longitude": -117.229112, "freeway": 60, "station": 819923, "latitude": 33.940195, "type": "HV"}, {"urban": 0, "direction": 2, "name": "M 2.2 N/O SR-91", "district": 8, "longitude": -117.650828, "freeway": 71, "station": 819321, "latitude": 33.913037}, {"urban": 1, "direction": 4, "name": "HEACOCK", "district": 8, "longitude": -117.241153, "freeway": 60, "station": 819930, "latitude": 33.941223, "type": "HV"}, {"urban": 1, "direction": 4, "name": "FOWLER AVE 168 WB", "district": 6, "longitude": -119.687344, "freeway": 945, "station": 602257, "latitude": 36.840994, "type": "OR"}, {"urban": 0, "direction": 4, "name": " W/O Upper Old Priest Grade Rd", "district": 10, "longitude": -120.27205, "freeway": 120, "station": 1049310, "latitude": 37.814091, "type": "CH"}, {"urban": 1, "direction": 1, "name": "S/O SR-56", "district": 11, "longitude": -117.237966, "freeway": 5, "station": 1114847, "latitude": 32.922293}, {"urban": 1, "direction": 2, "name": "S/O SR-56", "district": 11, "longitude": -117.23824, "freeway": 5, "station": 1114848, "latitude": 32.922166}, {"urban": 1, "direction": 1, "name": "N of Eldridge POC", "district": 4, "longitude": -122.088255, "freeway": 880, "station": 408107, "latitude": 37.637181}, {"urban": 1, "direction": 2, "name": "2.67 mi S of Trousdale Dr", "district": 4, "longitude": -122.378436, "freeway": 280, "station": 404262, "latitude": 37.553892}, {"urban": 1, "direction": 2, "name": "N/O MANCHESTER AVE", "district": 11, "longitude": -117.268215, "freeway": 5, "station": 1114854, "latitude": 33.013284}, {"urban": 1, "direction": 3, "name": "PIGEON PASS", "district": 8, "longitude": -117.264258, "freeway": 60, "station": 819945, "latitude": 33.940689, "type": "HV"}, {"urban": 0, "direction": 2, "name": "0.368 mi S of Trousdale DR", "district": 4, "longitude": -122.401185, "freeway": 280, "station": 404263, "latitude": 37.575619}, {"urban": 1, "direction": 1, "name": "Maze Blvd", "district": 10, "longitude": -121.008769, "freeway": 99, "station": 1005010, "latitude": 37.640971}, {"urban": 1, "direction": 1, "name": "N/O BIRMINGHAM DR", "district": 11, "longitude": -117.275912, "freeway": 5, "station": 1114862, "latitude": 33.028326}, {"urban": 1, "direction": 1, "name": "S/O ENCINITAS BLVD", "district": 11, "longitude": -117.285974, "freeway": 5, "station": 1114868, "latitude": 33.044755}, {"urban": 0, "direction": 1, "name": "M 1 Mi N/O SR-83", "district": 8, "longitude": -117.670721, "freeway": 71, "station": 819326, "latitude": 33.943234, "type": "HV"}, {"urban": 1, "direction": 2, "name": "N of Crystal Spring Rd", "district": 4, "longitude": -122.426217, "freeway": 280, "station": 404265, "latitude": 37.620684}, {"urban": 1, "direction": 1, "name": "N/O TAMARACK AVE", "district": 11, "longitude": -117.338093, "freeway": 5, "station": 1114875, "latitude": 33.155391}, {"urban": 1, "direction": 1, "name": "CENTRAL AVE SB ON", "district": 8, "longitude": -117.308599, "freeway": 215, "station": 819964, "latitude": 33.958394}, {"urban": 1, "direction": 4, "name": "WB Douglas Blvd", "district": 3, "longitude": -121.268651, "freeway": 80, "station": 316453, "latitude": 38.747398, "type": "FR"}, {"urban": 1, "direction": 2, "name": "BELMONT AVE 99 SB", "district": 6, "longitude": -119.822533, "freeway": 99, "station": 601238, "latitude": 36.747121}, {"urban": 0, "direction": 2, "name": "N/O SR-163 MERGE", "district": 11, "longitude": -117.111301, "freeway": 15, "station": 1114881, "latitude": 32.862944}, {"urban": 1, "direction": 3, "name": "MILIKEN", "district": 8, "longitude": -117.561268, "freeway": 60, "station": 819973, "latitude": 34.024701}, {"urban": 1, "direction": 2, "name": "JENSEN AVE 41 SB", "district": 6, "longitude": -119.78515, "freeway": 41, "station": 624152, "latitude": 36.706727}, {"urban": 1, "direction": 3, "name": "MILLIKEN", "district": 8, "longitude": -117.561268, "freeway": 60, "station": 819975, "latitude": 34.024701, "type": "HV"}, {"urban": 0, "direction": 2, "name": " N of Crystal Spring Rd", "district": 4, "longitude": -122.370052, "freeway": 280, "station": 404269, "latitude": 37.544495}, {"urban": 1, "direction": 3, "name": "MAIN ST", "district": 8, "longitude": -117.363587, "freeway": 60, "station": 819986, "latitude": 33.995896, "type": "FR"}, {"urban": 1, "direction": 1, "name": "HERMOSA 1", "district": 12, "longitude": -117.630415, "freeway": 5, "station": 1213203, "latitude": 33.44466, "type": "OR"}, {"urban": 1, "direction": 1, "name": "HERMOSA 1", "district": 12, "longitude": -117.630415, "freeway": 5, "station": 1213204, "latitude": 33.44466, "type": "FR"}, {"urban": 1, "direction": 2, "name": "HERNDON AVE 99 SB", "district": 6, "longitude": -119.915288, "freeway": 99, "station": 601239, "latitude": 36.83029}, {"urban": 1, "direction": 1, "name": "HERMOSA 2", "district": 12, "longitude": -117.631445, "freeway": 5, "station": 1213215, "latitude": 33.445434}, {"urban": 1, "direction": 1, "name": "HERMOSA 2", "district": 12, "longitude": -117.631445, "freeway": 5, "station": 1213216, "latitude": 33.445434, "type": "OR"}, {"urban": 1, "direction": 4, "name": "HAVEN", "district": 8, "longitude": -117.573998, "freeway": 60, "station": 820001, "latitude": 34.028621}, {"urban": 1, "direction": 1, "name": "S/O Charter Way", "district": 10, "longitude": -121.296063, "freeway": 5, "station": 1016610, "latitude": 37.931658}, {"urban": 1, "direction": 2, "name": "S15 N/O Adams ave", "district": 11, "longitude": -117.112643, "freeway": 15, "station": 1119707, "latitude": 32.779159}, {"urban": 1, "direction": 1, "name": "WAGNER 3", "district": 12, "longitude": -117.875978, "freeway": 57, "station": 1219226, "latitude": 33.829503, "type": "HV"}, {"urban": 1, "direction": 4, "name": "HAVEN", "district": 8, "longitude": -117.578863, "freeway": 60, "station": 820008, "latitude": 34.029928}, {"urban": 1, "direction": 1, "name": "SILVER LAKE", "district": 7, "longitude": -118.282724, "freeway": 101, "station": 773638, "latitude": 34.077518, "type": "OR"}, {"urban": 1, "direction": 2, "name": "HERMOSA 2", "district": 12, "longitude": -117.631557, "freeway": 5, "station": 1213229, "latitude": 33.445303}, {"urban": 1, "direction": 2, "name": "HERMOSA 2", "district": 12, "longitude": -117.631557, "freeway": 5, "station": 1213230, "latitude": 33.445303, "type": "OR"}, {"urban": 1, "direction": 2, "name": "HERMOSA 2", "district": 12, "longitude": -117.631557, "freeway": 5, "station": 1213231, "latitude": 33.445303, "type": "FR"}, {"urban": 1, "direction": 3, "name": "ARCHIBALD", "district": 8, "longitude": -117.590566, "freeway": 60, "station": 820016, "latitude": 34.030487, "type": "FR"}, {"urban": 1, "direction": 3, "name": "ARCHIBALD", "district": 8, "longitude": -117.590566, "freeway": 60, "station": 820017, "latitude": 34.030487}, {"urban": 1, "direction": 1, "name": "CHAPMAN 2 EB", "district": 12, "longitude": -117.830884, "freeway": 55, "station": 1213237, "latitude": 33.790409, "type": "FR"}, {"urban": 1, "direction": 3, "name": "VINEYARD", "district": 8, "longitude": -117.607987, "freeway": 60, "station": 820022, "latitude": 34.03045}, {"urban": 1, "direction": 2, "name": "17TH 1", "district": 12, "longitude": -117.831392, "freeway": 55, "station": 1213239, "latitude": 33.75738, "type": "FR"}, {"urban": 0, "direction": 1, "name": " Off Ramp to Golden State Blvd", "district": 10, "longitude": -120.802577, "freeway": 99, "station": 1044210, "latitude": 37.455029, "type": "FR"}, {"urban": 1, "direction": 3, "name": "MILLIKEN", "district": 8, "longitude": -117.55725, "freeway": 60, "station": 820027, "latitude": 34.023596}, {"urban": 1, "direction": 2, "name": "LINCOLN 1", "district": 12, "longitude": -117.834539, "freeway": 55, "station": 1213244, "latitude": 33.830875, "type": "OR"}, {"urban": 1, "direction": 2, "name": "LINCOLN 1", "district": 12, "longitude": -117.834539, "freeway": 55, "station": 1213246, "latitude": 33.830875, "type": "HV"}, {"urban": 1, "direction": 1, "name": "CHAPMAN 2", "district": 12, "longitude": -117.830884, "freeway": 55, "station": 1213247, "latitude": 33.790409, "type": "OR"}, {"urban": 1, "direction": 3, "name": "ARCHIBALD", "district": 8, "longitude": -117.595962, "freeway": 60, "station": 820033, "latitude": 34.030496}, {"urban": 0, "direction": 3, "name": " E/O Upper Old Priest Grade Rd", "district": 10, "longitude": -120.271376, "freeway": 120, "station": 1049410, "latitude": 37.814218, "type": "CH"}, {"urban": 1, "direction": 1, "name": "CHAPMAN 2 ON LOOPS", "district": 12, "longitude": -117.830884, "freeway": 55, "station": 1213251, "latitude": 33.790409, "type": "FF"}, {"urban": 1, "direction": 3, "name": "GROVE", "district": 8, "longitude": -117.625446, "freeway": 60, "station": 820039, "latitude": 34.030392}, {"urban": 1, "direction": 2, "name": "Nisquali Rd", "district": 8, "longitude": -117.33555, "freeway": 15, "station": 823831, "latitude": 34.485368}, {"urban": 1, "direction": 2, "name": "LINCOLN 2", "district": 12, "longitude": -117.835146, "freeway": 55, "station": 1213258, "latitude": 33.837162, "type": "FR"}, {"urban": 1, "direction": 3, "name": "0.391 mi E of Foothill Rd", "district": 4, "longitude": -121.929227, "freeway": 580, "station": 404279, "latitude": 37.699363}, {"urban": 1, "direction": 1, "name": "LINCOLN 2 QUEUE LOOP", "district": 12, "longitude": -117.834992, "freeway": 55, "station": 1213262, "latitude": 33.837111, "type": "FF"}, {"urban": 1, "direction": 3, "name": "MOUNTAIN", "district": 8, "longitude": -117.664967, "freeway": 60, "station": 820047, "latitude": 34.030267}, {"urban": 1, "direction": 1, "name": "LINCOLN 2 PASSAGE", "district": 12, "longitude": -117.834992, "freeway": 55, "station": 1213266, "latitude": 33.837111, "type": "FF"}, {"urban": 1, "direction": 4, "name": "MOUNTAIN WB ON", "district": 8, "longitude": -117.670634, "freeway": 60, "station": 820052, "latitude": 34.030504}, {"urban": 1, "direction": 2, "name": "KATELLA 1", "district": 12, "longitude": -117.832031, "freeway": 55, "station": 1213274, "latitude": 33.809605}, {"urban": 1, "direction": 2, "name": "KATELLA 1", "district": 12, "longitude": -117.832031, "freeway": 55, "station": 1213275, "latitude": 33.809605, "type": "HV"}, {"urban": 1, "direction": 2, "name": "KATELLA 1", "district": 12, "longitude": -117.832031, "freeway": 55, "station": 1213276, "latitude": 33.809605, "type": "OR"}, {"urban": 0, "direction": 3, "name": "Off to Bird Rd", "district": 10, "longitude": -121.364937, "freeway": 132, "station": 1092410, "latitude": 37.637709, "type": "FR"}, {"urban": 1, "direction": 1, "name": "S of Rohnert Park Expwy", "district": 4, "longitude": -122.712778, "freeway": 101, "station": 406558, "latitude": 38.34072}, {"urban": 0, "direction": 3, "name": "W/O La Grange Rd", "district": 10, "longitude": -120.508587, "freeway": 120, "station": 1082210, "latitude": 37.84302}, {"urban": 1, "direction": 2, "name": "5S to 133N", "district": 12, "longitude": -117.759362, "freeway": 5, "station": 1213283, "latitude": 33.67863, "type": "FF"}, {"urban": 1, "direction": 4, "name": "VINEYARD AVE", "district": 8, "longitude": -117.608589, "freeway": 10, "station": 820070, "latitude": 34.069681, "type": "HV"}, {"urban": 1, "direction": 4, "name": "VINEYARD AVE", "district": 8, "longitude": -117.608589, "freeway": 10, "station": 820071, "latitude": 34.069681}, {"urban": 1, "direction": 4, "name": "EUCLID", "district": 8, "longitude": -117.653849, "freeway": 60, "station": 820072, "latitude": 34.030551}, {"urban": 1, "direction": 4, "name": "CENTRAL", "district": 8, "longitude": -117.692634, "freeway": 60, "station": 820078, "latitude": 34.030388}, {"urban": 1, "direction": 4, "name": "EUCLID 3", "district": 12, "longitude": -117.942011, "freeway": 91, "station": 1218698, "latitude": 33.854203}, {"urban": 1, "direction": 4, "name": "CENTRAL", "district": 8, "longitude": -117.692634, "freeway": 60, "station": 820082, "latitude": 34.030388, "type": "HV"}, {"urban": 1, "direction": 3, "name": "Serfas Club", "district": 8, "longitude": -117.613562, "freeway": 91, "station": 824809, "latitude": 33.880708}, {"urban": 1, "direction": 3, "name": "HAVEN", "district": 8, "longitude": -117.578854, "freeway": 60, "station": 820088, "latitude": 34.029685, "type": "HV"}, {"urban": 1, "direction": 4, "name": "RAMONA", "district": 8, "longitude": -117.709995, "freeway": 60, "station": 820089, "latitude": 34.030267}, {"urban": 1, "direction": 3, "name": "CENTRAL", "district": 8, "longitude": -117.692625, "freeway": 60, "station": 820092, "latitude": 34.03012, "type": "HV"}, {"urban": 1, "direction": 1, "name": "BROOKHURST 2", "district": 12, "longitude": -117.958388, "freeway": 5, "station": 1212565, "latitude": 33.845442, "type": "HV"}, {"urban": 1, "direction": 3, "name": "CENTRAL", "district": 8, "longitude": -117.686621, "freeway": 60, "station": 820096, "latitude": 34.030151}, {"urban": 1, "direction": 4, "name": "ARCHIBALD", "district": 8, "longitude": -117.59057, "freeway": 60, "station": 820097, "latitude": 34.030718, "type": "HV"}, {"urban": 1, "direction": 2, "name": "STATE ST 101 NB PM 100.757 VDS M", "district": 5, "longitude": -119.752647, "freeway": 101, "station": 501012043, "latitude": 34.437633}, {"urban": 1, "direction": 4, "name": "VINEYARD", "district": 8, "longitude": -117.607997, "freeway": 60, "station": 820101, "latitude": 34.030672, "type": "HV"}, {"urban": 1, "direction": 2, "name": "SB 5 S/O Charter Way", "district": 10, "longitude": -121.296383, "freeway": 5, "station": 1016710, "latitude": 37.93162}, {"urban": 1, "direction": 4, "name": "MILLIKEN", "district": 8, "longitude": -117.554045, "freeway": 60, "station": 820105, "latitude": 34.022943, "type": "HV"}, {"urban": 1, "direction": 4, "name": "VINEYARD", "district": 8, "longitude": -117.61388, "freeway": 60, "station": 820108, "latitude": 34.03068, "type": "HV"}, {"urban": 1, "direction": 4, "name": "VINEYARD", "district": 8, "longitude": -117.61388, "freeway": 60, "station": 820109, "latitude": 34.03068}, {"urban": 1, "direction": 3, "name": "ARCHIBALD", "district": 8, "longitude": -117.595962, "freeway": 60, "station": 820110, "latitude": 34.030496, "type": "HV"}, {"urban": 1, "direction": 3, "name": "RAMONA", "district": 8, "longitude": -117.705128, "freeway": 60, "station": 820111, "latitude": 34.030054}, {"urban": 1, "direction": 4, "name": "GROVE", "district": 8, "longitude": -117.625451, "freeway": 60, "station": 820114, "latitude": 34.030646, "type": "HV"}, {"urban": 1, "direction": 4, "name": "0.768 mi E of Crow Canyon Rd", "district": 4, "longitude": -122.044678, "freeway": 580, "station": 404291, "latitude": 37.696097}, {"urban": 1, "direction": 4, "name": "TEMPERANCE AVE LP 168 WB", "district": 6, "longitude": -119.663639, "freeway": 945, "station": 601243, "latitude": 36.843361}, {"urban": 1, "direction": 4, "name": "GROVE", "district": 8, "longitude": -117.630985, "freeway": 60, "station": 820117, "latitude": 34.030623, "type": "HV"}, {"urban": 1, "direction": 3, "name": "EUCLID", "district": 8, "longitude": -117.653851, "freeway": 60, "station": 820118, "latitude": 34.030314, "type": "HV"}, {"urban": 1, "direction": 4, "name": "SUNLAND SB", "district": 7, "longitude": -118.331922, "freeway": 210, "station": 770201, "latitude": 34.262037, "type": "OR"}, {"urban": 1, "direction": 4, "name": "0.486 mi E of E Castro Blvd", "district": 4, "longitude": -122.025615, "freeway": 580, "station": 404292, "latitude": 37.701119}, {"urban": 1, "direction": 4, "name": "CENTRAL", "district": 8, "longitude": -117.686616, "freeway": 60, "station": 820122, "latitude": 34.030408, "type": "HV"}, {"urban": 1, "direction": 3, "name": "EUCLID", "district": 8, "longitude": -117.647603, "freeway": 60, "station": 820124, "latitude": 34.03033}, {"urban": 1, "direction": 3, "name": "EUCLID", "district": 8, "longitude": -117.647603, "freeway": 60, "station": 820125, "latitude": 34.03033}, {"urban": 1, "direction": 4, "name": "MOUNTAIN", "district": 8, "longitude": -117.66496, "freeway": 60, "station": 820127, "latitude": 34.03052, "type": "HV"}, {"urban": 1, "direction": 3, "name": "RAMONA", "district": 8, "longitude": -117.70991, "freeway": 60, "station": 820130, "latitude": 34.030011, "type": "HV"}, {"urban": 0, "direction": 4, "name": " E/O Upper Old Priest Grade Rd", "district": 10, "longitude": -120.271553, "freeway": 120, "station": 1049510, "latitude": 37.814064, "type": "CH"}, {"urban": 1, "direction": 1, "name": "805 NB HOV N/O Sorr", "district": 11, "longitude": -117.214135, "freeway": 805, "station": 1125909, "latitude": 32.894808, "type": "HV"}, {"urban": 0, "direction": 4, "name": "1.11 mi E Paloverde Rd", "district": 4, "longitude": -122.000745, "freeway": 580, "station": 404296, "latitude": 37.7037}, {"urban": 1, "direction": 3, "name": "MOUNTAIN WB ON", "district": 8, "longitude": -117.670642, "freeway": 60, "station": 820148, "latitude": 34.030246, "type": "HV"}, {"urban": 1, "direction": 3, "name": "Beaumont Ave", "district": 8, "longitude": -116.974913, "freeway": 10, "station": 825768, "latitude": 33.926927, "type": "FR"}, {"urban": 1, "direction": 3, "name": "Black Mt to 56E", "district": 11, "longitude": -117.119934, "freeway": 56, "station": 1125193, "latitude": 32.956215, "type": "OR"}, {"urban": 1, "direction": 4, "name": "RAMONA", "district": 8, "longitude": -117.705193, "freeway": 60, "station": 820152, "latitude": 34.030319, "type": "HV"}, {"urban": 1, "direction": 3, "name": "GROVE", "district": 8, "longitude": -117.630981, "freeway": 60, "station": 820156, "latitude": 34.030383, "type": "HV"}, {"urban": 1, "direction": 3, "name": "VINEYARD", "district": 8, "longitude": -117.613871, "freeway": 60, "station": 820161, "latitude": 34.03045, "type": "HV"}, {"urban": 1, "direction": 2, "name": "BOX SPRINGS SB ON", "district": 8, "longitude": -117.299605, "freeway": 215, "station": 820164, "latitude": 33.946908}, {"urban": 0, "direction": 4, "name": "W/O La Grange Rd", "district": 10, "longitude": -120.508624, "freeway": 120, "station": 1082310, "latitude": 37.84306}, {"urban": 1, "direction": 3, "name": "Black Mt to 56E", "district": 11, "longitude": -117.119934, "freeway": 56, "station": 1125196, "latitude": 32.956215, "type": "FR"}, {"urban": 1, "direction": 2, "name": "FOURTH ST SB LP", "district": 8, "longitude": -117.545031, "freeway": 15, "station": 820172, "latitude": 34.076309, "type": "FR"}, {"urban": 1, "direction": 4, "name": "EUCLID", "district": 8, "longitude": -117.647603, "freeway": 60, "station": 820177, "latitude": 34.030577, "type": "HV"}, {"urban": 1, "direction": 3, "name": "M .7 E/O BASELINE RD", "district": 8, "longitude": -117.199213, "freeway": 210, "station": 819363, "latitude": 34.109476}, {"urban": 1, "direction": 4, "name": "MAGNOLIA", "district": 12, "longitude": -117.972391, "freeway": 91, "station": 1213398, "latitude": 33.856235}, {"urban": 1, "direction": 1, "name": "MAGNOLIA", "district": 12, "longitude": -117.974766, "freeway": 5, "station": 1213407, "latitude": 33.854226, "type": "FR"}, {"urban": 1, "direction": 2, "name": "MAGNOLIA", "district": 12, "longitude": -117.97494, "freeway": 5, "station": 1213409, "latitude": 33.853961, "type": "FR"}, {"urban": 1, "direction": 2, "name": "MAGNOLIA 91E OFF", "district": 12, "longitude": -117.975069, "freeway": 5, "station": 1213410, "latitude": 33.854064, "type": "FR"}, {"urban": 1, "direction": 1, "name": "0.133 mi N of Durham Rd", "district": 4, "longitude": -121.945263, "freeway": 680, "station": 404305, "latitude": 37.527909}, {"urban": 1, "direction": 2, "name": "MAGNOLIA", "district": 12, "longitude": -117.97494, "freeway": 5, "station": 1213417, "latitude": 33.853961, "type": "HV"}, {"urban": 1, "direction": 1, "name": "MAGNOLIA", "district": 12, "longitude": -117.974766, "freeway": 5, "station": 1213418, "latitude": 33.854226, "type": "HV"}, {"urban": 1, "direction": 1, "name": "5 NB to 91 WB", "district": 12, "longitude": -117.974766, "freeway": 5, "station": 1213419, "latitude": 33.854226, "type": "FF"}, {"urban": 1, "direction": 4, "name": "MILLIKEN AVE", "district": 8, "longitude": -117.561479, "freeway": 10, "station": 820205, "latitude": 34.067614, "type": "FR"}, {"urban": 1, "direction": 1, "name": "Treat Blvd off", "district": 4, "longitude": -122.060688, "freeway": 680, "station": 408116, "latitude": 37.924777, "type": "FR"}, {"urban": 1, "direction": 3, "name": "MAGNOLIA", "district": 12, "longitude": -117.972438, "freeway": 91, "station": 1213424, "latitude": 33.856043, "type": "HV"}, {"urban": 1, "direction": 4, "name": "MAGNOLIA", "district": 12, "longitude": -117.972391, "freeway": 91, "station": 1213425, "latitude": 33.856235, "type": "HV"}, {"urban": 1, "direction": 4, "name": "91 WB to 5 NB", "district": 12, "longitude": -117.972391, "freeway": 91, "station": 1213426, "latitude": 33.856235, "type": "FF"}, {"urban": 1, "direction": 1, "name": "PICO 1 temp", "district": 12, "longitude": -117.658278, "freeway": 5, "station": 1219917, "latitude": 33.499516}, {"urban": 1, "direction": 2, "name": "N/O Lathrop Rd", "district": 10, "longitude": -121.217575, "freeway": 99, "station": 10104610, "latitude": 37.830415, "type": "FR"}, {"urban": 1, "direction": 2, "name": "Alum Rock Rd rm-n-diag", "district": 4, "longitude": -121.841794, "freeway": 680, "station": 407202, "latitude": 37.360613}, {"urban": 1, "direction": 2, "name": "SB 880", "district": 4, "longitude": -121.903211, "freeway": 880, "station": 400479, "latitude": 37.362439}, {"urban": 1, "direction": 3, "name": "Camino Del Sur", "district": 11, "longitude": -117.152094, "freeway": 56, "station": 1125207, "latitude": 32.958196}, {"urban": 0, "direction": 1, "name": "N. of Striplin Rd.", "district": 3, "longitude": -121.558486, "freeway": 99, "station": 316932, "latitude": 38.870857}, {"urban": 1, "direction": 4, "name": "MAGNOLIA", "district": 8, "longitude": -117.486014, "freeway": 91, "station": 820250, "latitude": 33.89697, "type": "HV"}, {"urban": 0, "direction": 2, "name": "WHEELER RIDGE RD - I5 SB", "district": 6, "longitude": -118.947488, "freeway": 5, "station": 602339, "latitude": 34.992804}, {"urban": 0, "direction": 3, "name": "E/O La Grange Rd", "district": 10, "longitude": -120.507433, "freeway": 120, "station": 1082410, "latitude": 37.844031}, {"urban": 1, "direction": 2, "name": "BROOKHURST 1", "district": 12, "longitude": -117.955942, "freeway": 5, "station": 1212594, "latitude": 33.843443, "type": "HV"}, {"urban": 1, "direction": 1, "name": "JAMBOREE", "district": 12, "longitude": -117.800349, "freeway": 261, "station": 1212281, "latitude": 33.712252}, {"urban": 1, "direction": 2, "name": "Lewelling Blvd on", "district": 4, "longitude": -122.106837, "freeway": 238, "station": 403193, "latitude": 37.688902, "type": "OR"}, {"urban": 1, "direction": 4, "name": " W/O Tracy Rd Off Ramp", "district": 10, "longitude": -121.433703, "freeway": 205, "station": 1026910, "latitude": 37.763077}, {"urban": 1, "direction": 3, "name": "Lincoln Ave", "district": 8, "longitude": -117.582872, "freeway": 91, "station": 824896, "latitude": 33.881799, "type": "HV"}, {"urban": 1, "direction": 4, "name": "ADAMS", "district": 8, "longitude": -117.418672, "freeway": 91, "station": 820288, "latitude": 33.928148, "type": "HV"}, {"urban": 1, "direction": 1, "name": "RED ROBIN", "district": 12, "longitude": -117.714379, "freeway": 5, "station": 1213509, "latitude": 33.621929, "type": "FR"}, {"urban": 1, "direction": 1, "name": "HWY 183 AT HWY 1 NB VDS MLNB NB", "district": 5, "longitude": -121.765096, "freeway": 1, "station": 5000011112, "latitude": 36.76957}, {"urban": 0, "direction": 4, "name": "Off Ramp to NB I-5", "district": 10, "longitude": -121.396063, "freeway": 12, "station": 1081310, "latitude": 38.11609, "type": "FR"}, {"urban": 1, "direction": 2, "name": "N/O Gerard Ave", "district": 10, "longitude": -120.449449, "freeway": 99, "station": 1016910, "latitude": 37.281725}, {"urban": 1, "direction": 2, "name": "NEES AVE AT 41 SB", "district": 6, "longitude": -119.786527, "freeway": 41, "station": 624163, "latitude": 36.850615}, {"urban": 1, "direction": 4, "name": "E/O Pentecost Dr", "district": 10, "longitude": -121.001067, "freeway": 219, "station": 10102810, "latitude": 37.711101}, {"urban": 1, "direction": 1, "name": " S/O Off Ramp to Childs Ave", "district": 10, "longitude": -120.454782, "freeway": 99, "station": 1034610, "latitude": 37.287085}, {"urban": 1, "direction": 1, "name": "ANKERTON", "district": 12, "longitude": -117.70083, "freeway": 5, "station": 1213525, "latitude": 33.60972, "type": "HV"}, {"urban": 1, "direction": 2, "name": "ANKERTON", "district": 12, "longitude": -117.700998, "freeway": 5, "station": 1213526, "latitude": 33.609505, "type": "HV"}, {"urban": 1, "direction": 1, "name": "ANKERTON", "district": 12, "longitude": -117.70083, "freeway": 5, "station": 1213527, "latitude": 33.60972}, {"urban": 1, "direction": 2, "name": "ANKERTON", "district": 12, "longitude": -117.700998, "freeway": 5, "station": 1213528, "latitude": 33.609505}, {"urban": 0, "direction": 1, "name": "0.0412 mi W of Andrade Rd", "district": 4, "longitude": -121.885299, "freeway": 680, "station": 404324, "latitude": 37.574345}, {"urban": 1, "direction": 3, "name": "S57 to E91", "district": 12, "longitude": -117.876605, "freeway": 91, "station": 1213537, "latitude": 33.850044, "type": "FF"}, {"urban": 1, "direction": 2, "name": "LAS RAMBLAS", "district": 12, "longitude": -117.670554, "freeway": 5, "station": 1213541, "latitude": 33.467211, "type": "OR"}, {"urban": 1, "direction": 3, "name": "TIPPECANOE AVE", "district": 8, "longitude": -117.25872, "freeway": 10, "station": 820326, "latitude": 34.064883, "type": "FR"}, {"urban": 1, "direction": 1, "name": "NB 805 N/O 163", "district": 11, "longitude": -117.155267, "freeway": 805, "station": 1115240, "latitude": 32.811675}, {"urban": 1, "direction": 3, "name": "CALIFORNIA ST.", "district": 8, "longitude": -117.224079, "freeway": 10, "station": 820330, "latitude": 34.06648, "type": "FR"}, {"urban": 1, "direction": 4, "name": "MT. VIEW AVE", "district": 8, "longitude": -117.246498, "freeway": 10, "station": 820333, "latitude": 34.066685, "type": "FR"}, {"urban": 1, "direction": 2, "name": "SB 805 N/O 163", "district": 11, "longitude": -117.155527, "freeway": 805, "station": 1115246, "latitude": 32.811513}, {"urban": 1, "direction": 2, "name": "0.133 mi N of Durham Rd", "district": 4, "longitude": -121.945743, "freeway": 680, "station": 404329, "latitude": 37.528135}, {"urban": 0, "direction": 3, "name": "E. of PrairieCity Rd", "district": 3, "longitude": -121.138849, "freeway": 50, "station": 316949, "latitude": 38.642046}, {"urban": 1, "direction": 1, "name": "FAIRCOURT", "district": 12, "longitude": -117.671844, "freeway": 5, "station": 1213568, "latitude": 33.569099, "type": "HV"}, {"urban": 1, "direction": 2, "name": "Faircourt", "district": 12, "longitude": -117.67216, "freeway": 5, "station": 1213569, "latitude": 33.569098, "type": "HV"}, {"urban": 1, "direction": 1, "name": "FAIRCOURT", "district": 12, "longitude": -117.671844, "freeway": 5, "station": 1213570, "latitude": 33.569099}, {"urban": 1, "direction": 2, "name": "Faircourt", "district": 12, "longitude": -117.67216, "freeway": 5, "station": 1213571, "latitude": 33.569098}, {"urban": 1, "direction": 3, "name": "LA SIERRA", "district": 8, "longitude": -117.474346, "freeway": 91, "station": 820356, "latitude": 33.899559}, {"urban": 1, "direction": 1, "name": "NB 5 @ I-8", "district": 11, "longitude": -117.202103, "freeway": 5, "station": 1115269, "latitude": 32.755488}, {"urban": 1, "direction": 2, "name": "JAMBOREE", "district": 12, "longitude": -117.800638, "freeway": 261, "station": 1212284, "latitude": 33.7124, "type": "OR"}, {"urban": 1, "direction": 3, "name": "LA SIERRA", "district": 8, "longitude": -117.470486, "freeway": 91, "station": 820363, "latitude": 33.900773, "type": "HV"}, {"urban": 1, "direction": 4, "name": "LA SIERRA", "district": 8, "longitude": -117.470636, "freeway": 91, "station": 820364, "latitude": 33.900916}, {"urban": 1, "direction": 1, "name": "NB 5 BYP @ CRML VLLY", "district": 11, "longitude": -117.240733, "freeway": 5, "station": 1115277, "latitude": 32.930695}, {"urban": 0, "direction": 4, "name": "E/O La Grange Rd", "district": 10, "longitude": -120.507473, "freeway": 120, "station": 1082510, "latitude": 37.844044}, {"urban": 0, "direction": 3, "name": "W/O Jackson Slough Rd", "district": 10, "longitude": -121.624316, "freeway": 12, "station": 1078910, "latitude": 38.140121}, {"urban": 1, "direction": 3, "name": "TYLER", "district": 8, "longitude": -117.456517, "freeway": 91, "station": 820369, "latitude": 33.906407, "type": "HV"}, {"urban": 1, "direction": 4, "name": "MACLAY", "district": 7, "longitude": -118.422166, "freeway": 210, "station": 770243, "latitude": 34.302019}, {"urban": 1, "direction": 1, "name": "NB 5 @ CASSIDY", "district": 11, "longitude": -117.353416, "freeway": 5, "station": 1115289, "latitude": 33.179859}, {"urban": 1, "direction": 2, "name": "120TH STREET", "district": 7, "longitude": -118.281671, "freeway": 110, "station": 774705, "latitude": 33.922722, "type": "HV"}, {"urban": 1, "direction": 4, "name": "180 @ BROADWAY AVE WB", "district": 6, "longitude": -119.802844, "freeway": 180, "station": 602343, "latitude": 36.747424}, {"urban": 1, "direction": 1, "name": "CULVER 1", "district": 12, "longitude": -117.781713, "freeway": 5, "station": 1213602, "latitude": 33.709761, "type": "FR"}, {"urban": 1, "direction": 4, "name": "TYLER", "district": 8, "longitude": -117.457413, "freeway": 91, "station": 820387, "latitude": 33.906107, "type": "HV"}, {"urban": 1, "direction": 1, "name": "NB 5 @ OCEANSIDE BL", "district": 11, "longitude": -117.363042, "freeway": 5, "station": 1115304, "latitude": 33.191415}, {"urban": 1, "direction": 1, "name": "NB 5 @ MISSION", "district": 11, "longitude": -117.373244, "freeway": 5, "station": 1115306, "latitude": 33.200816}, {"urban": 1, "direction": 1, "name": "NB 5 @ 76", "district": 11, "longitude": -117.381192, "freeway": 5, "station": 1115314, "latitude": 33.203683}, {"urban": 0, "direction": 1, "name": "N/O 52", "district": 11, "longitude": -117.119997, "freeway": 15, "station": 1125235, "latitude": 32.842596, "type": "OR"}, {"urban": 1, "direction": 4, "name": "Main St", "district": 8, "longitude": -117.564692, "freeway": 91, "station": 824862, "latitude": 33.880018}, {"urban": 1, "direction": 2, "name": "STADIUM", "district": 12, "longitude": -117.878863, "freeway": 57, "station": 1213624, "latitude": 33.801383}, {"urban": 1, "direction": 1, "name": "NB 5 @ HARBOR", "district": 11, "longitude": -117.38743, "freeway": 5, "station": 1115323, "latitude": 33.211043}, {"urban": 1, "direction": 2, "name": "STADIUM", "district": 12, "longitude": -117.878863, "freeway": 57, "station": 1213628, "latitude": 33.801383, "type": "HV"}, {"urban": 1, "direction": 1, "name": "LAS POSIATAS RD101 SB PM 99.757", "district": 5, "longitude": -119.738795, "freeway": 101, "station": 501012022, "latitude": 34.42886}, {"urban": 1, "direction": 2, "name": "HOV 55S to 405S", "district": 12, "longitude": -117.865648, "freeway": 405, "station": 1213640, "latitude": 33.686295, "type": "FF"}, {"urban": 1, "direction": 1, "name": "HOV 405N to 55N", "district": 12, "longitude": -117.864081, "freeway": 405, "station": 1213641, "latitude": 33.686072, "type": "FF"}, {"urban": 1, "direction": 1, "name": "IMPERIAL OFF", "district": 12, "longitude": -117.880367, "freeway": 57, "station": 1217483, "latitude": 33.919524}, {"urban": 1, "direction": 1, "name": "On from Eighth St", "district": 10, "longitude": -121.294474, "freeway": 5, "station": 1087010, "latitude": 37.927178, "type": "OR"}, {"urban": 1, "direction": 1, "name": "HYLAND", "district": 12, "longitude": -117.921335, "freeway": 405, "station": 1213650, "latitude": 33.690091}, {"urban": 1, "direction": 2, "name": "NB 5 @ 76", "district": 11, "longitude": -117.381365, "freeway": 5, "station": 1115347, "latitude": 33.203488, "type": "FF"}, {"urban": 1, "direction": 2, "name": "SB 5 @76", "district": 11, "longitude": -117.381365, "freeway": 5, "station": 1115348, "latitude": 33.203488}, {"urban": 1, "direction": 1, "name": "STATE COLLEGE", "district": 12, "longitude": -117.888724, "freeway": 5, "station": 1212622, "latitude": 33.790771, "type": "FR"}, {"urban": 1, "direction": 1, "name": "HOV AT 55N FLYOVER**", "district": 12, "longitude": -117.865527, "freeway": 405, "station": 1213655, "latitude": 33.686563, "type": "HV"}, {"urban": 1, "direction": 1, "name": "5 NB @ Mission Bay", "district": 11, "longitude": -117.209556, "freeway": 5, "station": 1122814, "latitude": 32.797157, "type": "FR"}, {"urban": 1, "direction": 2, "name": "SB 5 S/O 8", "district": 11, "longitude": -117.202366, "freeway": 5, "station": 1115355, "latitude": 32.755407}, {"urban": 1, "direction": 3, "name": "EB 8 E/O Morena", "district": 11, "longitude": -117.195215, "freeway": 8, "station": 1115356, "latitude": 32.760498}, {"urban": 1, "direction": 3, "name": "EB 8  Conn  163", "district": 11, "longitude": -117.167362, "freeway": 8, "station": 1115368, "latitude": 32.761014, "type": "FF"}, {"urban": 1, "direction": 2, "name": "N of 91", "district": 12, "longitude": -117.875855, "freeway": 57, "station": 1213673, "latitude": 33.851167}, {"urban": 0, "direction": 3, "name": "W of COAL", "district": 12, "longitude": -117.68647, "freeway": 91, "station": 1213680, "latitude": 33.871539}, {"urban": 0, "direction": 1, "name": "On from Rte 12", "district": 10, "longitude": -121.398359, "freeway": 5, "station": 1082610, "latitude": 38.117278, "type": "OR"}, {"urban": 1, "direction": 3, "name": "W/O WARING RD", "district": 11, "longitude": -117.094937, "freeway": 8, "station": 1115380, "latitude": 32.780016}, {"urban": 1, "direction": 1, "name": " Off Ramp to Milgeo Ave", "district": 10, "longitude": -121.129793, "freeway": 99, "station": 1059710, "latitude": 37.744663, "type": "FR"}, {"urban": 0, "direction": 4, "name": "W of COAL", "district": 12, "longitude": -117.686605, "freeway": 91, "station": 1213686, "latitude": 33.872075}, {"urban": 0, "direction": 3, "name": "W of COAL", "district": 12, "longitude": -117.68647, "freeway": 91, "station": 1213690, "latitude": 33.871539, "type": "HV"}, {"urban": 0, "direction": 4, "name": "W of COAL", "district": 12, "longitude": -117.686605, "freeway": 91, "station": 1213691, "latitude": 33.872075, "type": "HV"}, {"urban": 1, "direction": 3, "name": "Main St", "district": 8, "longitude": -117.564596, "freeway": 91, "station": 824874, "latitude": 33.879832, "type": "HV"}, {"urban": 1, "direction": 2, "name": "CERVANTES", "district": 12, "longitude": -117.671829, "freeway": 5, "station": 1213699, "latitude": 33.588522}, {"urban": 1, "direction": 1, "name": "CERVANTES", "district": 12, "longitude": -117.671484, "freeway": 5, "station": 1213700, "latitude": 33.588603}, {"urban": 1, "direction": 4, "name": "E/O COLLEGE", "district": 7, "longitude": -117.71118, "freeway": 10, "station": 774745, "latitude": 34.081976, "type": "HV"}, {"urban": 1, "direction": 3, "name": "MADISON", "district": 8, "longitude": -117.403479, "freeway": 91, "station": 820487, "latitude": 33.936564, "type": "HV"}, {"urban": 1, "direction": 4, "name": "MADISON", "district": 8, "longitude": -117.406008, "freeway": 91, "station": 820489, "latitude": 33.935365, "type": "HV"}, {"urban": 1, "direction": 2, "name": "CERVANTES", "district": 12, "longitude": -117.671829, "freeway": 5, "station": 1213706, "latitude": 33.588522, "type": "HV"}, {"urban": 1, "direction": 1, "name": "CERVANTES", "district": 12, "longitude": -117.671484, "freeway": 5, "station": 1213708, "latitude": 33.588603, "type": "HV"}, {"urban": 1, "direction": 1, "name": "N of 91", "district": 12, "longitude": -117.875572, "freeway": 57, "station": 1213709, "latitude": 33.851227, "type": "HV"}, {"urban": 1, "direction": 2, "name": "N of 91", "district": 12, "longitude": -117.875855, "freeway": 57, "station": 1213710, "latitude": 33.851167, "type": "HV"},